<?xml version="1.0" encoding="UTF-8"?>
<gpx version="1.1" creator="HikeFly.es" xmlns="http://www.topografix.com/GPX/1/1">

<wpt lat="36.823757" lon="-2.5696"><name>ALMERÍA. Aguadulce</name><desc>Orientación: _S_SO&#10;Nº vuelos en XContest: 205&#10;Windy:&#10;https://www.windy.com/36.823757/-2.5696/wind?36.823757,-2.5696,13&#10;MeteoParapente:&#10;https://meteo-parapente.com/#/36.823757,-2.5696,13</desc></wpt>
<wpt lat="37.3818" lon="-1.7058"><name>ALMERÍA. Aguilón</name><desc>Orientación: _E_SE&#10;Nº vuelos en XContest: 8&#10;Windy:&#10;https://www.windy.com/37.3818/-1.7058/wind?37.3818,-1.7058,13&#10;MeteoParapente:&#10;https://meteo-parapente.com/#/37.3818,-1.7058,13</desc></wpt>
<wpt lat="36.858014" lon="-2.091894"><name>ALMERÍA. Albaricoques</name><desc>Orientación: _O_SO&#10;Nº vuelos en XContest: 16&#10;Windy:&#10;https://www.windy.com/36.858014/-2.091894/wind?36.858014,-2.091894,13&#10;MeteoParapente:&#10;https://meteo-parapente.com/#/36.858014,-2.091894,13</desc></wpt>
<wpt lat="36.954647" lon="-2.618931"><name>ALMERÍA. Alicún</name><desc>Orientación: _N_NO_E&#10;Nº vuelos en XContest: 105&#10;Windy:&#10;https://www.windy.com/36.954647/-2.618931/wind?36.954647,-2.618931,13&#10;MeteoParapente:&#10;https://meteo-parapente.com/#/36.954647,-2.618931,13</desc></wpt>
<wpt lat="36.896733" lon="-2.885983"><name>ALMERÍA. Berja - Castala</name><desc>Orientación: _SO_O&#10;Nº vuelos en XContest: 100&#10;Windy:&#10;https://www.windy.com/36.896733/-2.885983/wind?36.896733,-2.885983,13&#10;MeteoParapente:&#10;https://meteo-parapente.com/#/36.896733,-2.885983,13</desc></wpt>
<wpt lat="36.896831" lon="-2.917142"><name>ALMERÍA. Castala</name><desc>Orientación: _S_SO_O&#10;Nº vuelos en XContest: 949&#10;Windy:&#10;https://www.windy.com/36.896831/-2.917142/wind?36.896831,-2.917142,13&#10;MeteoParapente:&#10;https://meteo-parapente.com/#/36.896831,-2.917142,13</desc></wpt>
<wpt lat="37.21005" lon="-2.2806"><name>ALMERÍA. Collado García</name><desc>Orientación: _S_SE_SO&#10;Nº vuelos en XContest: 131&#10;Windy:&#10;https://www.windy.com/37.21005/-2.2806/wind?37.21005,-2.2806,13&#10;MeteoParapente:&#10;https://meteo-parapente.com/#/37.21005,-2.2806,13</desc></wpt>
<wpt lat="36.924647" lon="-2.290453"><name>ALMERÍA. Cuevas de los Medinas (Úbedas)</name><desc>Orientación: _O&#10;Nº vuelos en XContest: 30&#10;Windy:&#10;https://www.windy.com/36.924647/-2.290453/wind?36.924647,-2.290453,13&#10;MeteoParapente:&#10;https://meteo-parapente.com/#/36.924647,-2.290453,13</desc></wpt>
<wpt lat="36.83315" lon="-2.836944"><name>ALMERÍA. Dalias</name><desc>Orientación: _S&#10;Nº vuelos en XContest: 59&#10;Windy:&#10;https://www.windy.com/36.83315/-2.836944/wind?36.83315,-2.836944,13&#10;MeteoParapente:&#10;https://meteo-parapente.com/#/36.83315,-2.836944,13</desc></wpt>
<wpt lat="36.772345" lon="-3.082028"><name>ALMERÍA. Guainos</name><desc>Orientación: _E_O_S_SO_SE&#10;Nº vuelos en XContest: 365&#10;Windy:&#10;https://www.windy.com/36.772345/-3.082028/wind?36.772345,-3.082028,13&#10;MeteoParapente:&#10;https://meteo-parapente.com/#/36.772345,-3.082028,13</desc></wpt>
<wpt lat="36.833472" lon="-2.067225"><name>ALMERÍA. La Isleta</name><desc>Orientación: _S&#10;Nº vuelos en XContest: 2&#10;Windy:&#10;https://www.windy.com/36.833472/-2.067225/wind?36.833472,-2.067225,13&#10;MeteoParapente:&#10;https://meteo-parapente.com/#/36.833472,-2.067225,13</desc></wpt>
<wpt lat="36.875577" lon="-2.005572"><name>ALMERÍA. Las Negras</name><desc>Orientación: _E_NE_SE&#10;Nº vuelos en XContest: 47&#10;Windy:&#10;https://www.windy.com/36.875577/-2.005572/wind?36.875577,-2.005572,13&#10;MeteoParapente:&#10;https://meteo-parapente.com/#/36.875577,-2.005572,13</desc></wpt>
<wpt lat="37.45835" lon="-2.467883"><name>ALMERÍA. Lúcar - Piedra Lobera</name><desc>Orientación: _O&#10;Nº vuelos en XContest: 1&#10;Windy:&#10;https://www.windy.com/37.45835/-2.467883/wind?37.45835,-2.467883,13&#10;MeteoParapente:&#10;https://meteo-parapente.com/#/37.45835,-2.467883,13</desc></wpt>
<wpt lat="37.0741" lon="-1.8518"><name>ALMERÍA. Macenas</name><desc>Orientación: _E&#10;Nº vuelos en XContest: 1&#10;Windy:&#10;https://www.windy.com/37.0741/-1.8518/wind?37.0741,-1.8518,13&#10;MeteoParapente:&#10;https://meteo-parapente.com/#/37.0741,-1.8518,13</desc></wpt>
<wpt lat="36.7308" lon="-2.14467"><name>ALMERÍA. Playa Monsul</name><desc>Orientación: _SO&#10;Nº vuelos en XContest: 1&#10;Windy:&#10;https://www.windy.com/36.7308/-2.14467/wind?36.7308,-2.14467,13&#10;MeteoParapente:&#10;https://meteo-parapente.com/#/36.7308,-2.14467,13</desc></wpt>
<wpt lat="36.95735" lon="-2.403867"><name>ALMERÍA. Sierra Alhamilla</name><desc>Orientación: _SO_S_OSO&#10;Nº vuelos en XContest: 936&#10;Windy:&#10;https://www.windy.com/36.95735/-2.403867/wind?36.95735,-2.403867,13&#10;MeteoParapente:&#10;https://meteo-parapente.com/#/36.95735,-2.403867,13</desc></wpt>
<wpt lat="37.671717" lon="-2.288233"><name>ALMERÍA. Sierra de María</name><desc>Orientación: _N&#10;Nº vuelos en XContest: 11&#10;Windy:&#10;https://www.windy.com/37.671717/-2.288233/wind?37.671717,-2.288233,13&#10;MeteoParapente:&#10;https://meteo-parapente.com/#/37.671717,-2.288233,13</desc></wpt>
<wpt lat="36.83887" lon="-2.63032"><name>ALMERÍA. Vícar</name><desc>Orientación: _SO&#10;Nº vuelos en XContest: 9&#10;Windy:&#10;https://www.windy.com/36.83887/-2.63032/wind?36.83887,-2.63032,13&#10;MeteoParapente:&#10;https://meteo-parapente.com/#/36.83887,-2.63032,13</desc></wpt>
<wpt lat="36.898817" lon="-5.393761"><name>CÁDIZ. Algodonales (Líjar)</name><desc>Orientación: _SO_S_SE_NO&#10;Nº vuelos en XContest: 18600&#10;Windy:&#10;https://www.windy.com/36.898817/-5.393761/wind?36.898817,-5.393761,13&#10;MeteoParapente:&#10;https://meteo-parapente.com/#/36.898817,-5.393761,13</desc></wpt>
<wpt lat="36.284317" lon="-6.101676"><name>CÁDIZ. Conil - La Fontanilla</name><desc>Orientación: _SO&#10;Nº vuelos en XContest: 232&#10;Windy:&#10;https://www.windy.com/36.284317/-6.101676/wind?36.284317,-6.101676,13&#10;MeteoParapente:&#10;https://meteo-parapente.com/#/36.284317,-6.101676,13</desc></wpt>
<wpt lat="36.7539025" lon="-5.489577"><name>CÁDIZ. El Bosque</name><desc>Orientación: _SO_OSO_O_ONO_NO&#10;Nº vuelos en XContest: 3710&#10;Windy:&#10;https://www.windy.com/36.7539025/-5.489577/wind?36.7539025,-5.489577,13&#10;MeteoParapente:&#10;https://meteo-parapente.com/#/36.7539025,-5.489577,13</desc></wpt>
<wpt lat="36.12459" lon="-5.67380"><name>CÁDIZ. Facinas</name><desc>Orientación: _SO_O&#10;Nº vuelos en XContest: 12&#10;Windy:&#10;https://www.windy.com/36.12459/-5.67380/wind?36.12459,-5.67380,13&#10;MeteoParapente:&#10;https://meteo-parapente.com/#/36.12459,-5.67380,13</desc></wpt>
<wpt lat="36.596111" lon="-5.795556"><name>CÁDIZ. San Jose del Valle</name><desc>Orientación: _N_NO&#10;Nº vuelos en XContest: 13&#10;Windy:&#10;https://www.windy.com/36.596111/-5.795556/wind?36.596111,-5.795556,13&#10;MeteoParapente:&#10;https://meteo-parapente.com/#/36.596111,-5.795556,13</desc></wpt>
<wpt lat="36.24759" lon="-5.97350"><name>CÁDIZ. Vejer</name><desc>Orientación: _O_NO&#10;Nº vuelos en XContest: 777&#10;Windy:&#10;https://www.windy.com/36.24759/-5.97350/wind?36.24759,-5.97350,13&#10;MeteoParapente:&#10;https://meteo-parapente.com/#/36.24759,-5.97350,13</desc></wpt>
<wpt lat="37.3371" lon="-4.34722"><name>CÓRDOBA. Las Cruces - Rute</name><desc>Orientación: _S_SE_SO_NO&#10;Nº vuelos en XContest: 17&#10;Windy:&#10;https://www.windy.com/37.3371/-4.34722/wind?37.3371,-4.34722,13&#10;MeteoParapente:&#10;https://meteo-parapente.com/#/37.3371,-4.34722,13</desc></wpt>
<wpt lat="37.40815" lon="-4.28299"><name>CÓRDOBA. Los Pollos</name><desc>Orientación: _O&#10;Nº vuelos en XContest: 13&#10;Windy:&#10;https://www.windy.com/37.40815/-4.28299/wind?37.40815,-4.28299,13&#10;MeteoParapente:&#10;https://meteo-parapente.com/#/37.40815,-4.28299,13</desc></wpt>
<wpt lat="37.376001" lon="-4.467048"><name>CÓRDOBA. Lucena (ermita Sierra de Aras)</name><desc>Orientación: _SSE_S_SSO&#10;Nº vuelos en XContest: 426&#10;Windy:&#10;https://www.windy.com/37.376001/-4.467048/wind?37.376001,-4.467048,13&#10;MeteoParapente:&#10;https://meteo-parapente.com/#/37.376001,-4.467048,13</desc></wpt>
<wpt lat="37.259162" lon="-3.561518"><name>GRANADA. Alcafar</name><desc>Orientación: _SO_O_NO&#10;Nº vuelos en XContest: 20&#10;Windy:&#10;https://www.windy.com/37.259162/-3.561518/wind?37.259162,-3.561518,13&#10;MeteoParapente:&#10;https://meteo-parapente.com/#/37.259162,-3.561518,13</desc></wpt>
<wpt lat="36.761625" lon="-3.631317"><name>GRANADA. Alfamar</name><desc>Orientación: _SO_S_SE&#10;Nº vuelos en XContest: 87&#10;Windy:&#10;https://www.windy.com/36.761625/-3.631317/wind?36.761625,-3.631317,13&#10;MeteoParapente:&#10;https://meteo-parapente.com/#/36.761625,-3.631317,13</desc></wpt>
<wpt lat="37.1712" lon="-3.43656"><name>GRANADA. Alto del Toril</name><desc>Orientación: _SO_O&#10;Nº vuelos en XContest: 1&#10;Windy:&#10;https://www.windy.com/37.1712/-3.43656/wind?37.1712,-3.43656,13&#10;MeteoParapente:&#10;https://meteo-parapente.com/#/37.1712,-3.43656,13</desc></wpt>
<wpt lat="37.337977" lon="-3.449148"><name>GRANADA. Cabeza del Caballo</name><desc>Orientación: _N_NE_NO&#10;Nº vuelos en XContest: 5&#10;Windy:&#10;https://www.windy.com/37.337977/-3.449148/wind?37.337977,-3.449148,13&#10;MeteoParapente:&#10;https://meteo-parapente.com/#/37.337977,-3.449148,13</desc></wpt>
<wpt lat="36.699856" lon="-3.464142"><name>GRANADA. Carchuna</name><desc>Orientación: _E_SE&#10;Nº vuelos en XContest: 150&#10;Windy:&#10;https://www.windy.com/36.699856/-3.464142/wind?36.699856,-3.464142,13&#10;MeteoParapente:&#10;https://meteo-parapente.com/#/36.699856,-3.464142,13</desc></wpt>
<wpt lat="36.74377" lon="-3.31583"><name>GRANADA. Castillo de Baños</name><desc>Orientación: _SO&#10;Nº vuelos en XContest: 10&#10;Windy:&#10;https://www.windy.com/36.74377/-3.31583/wind?36.74377,-3.31583,13&#10;MeteoParapente:&#10;https://meteo-parapente.com/#/36.74377,-3.31583,13</desc></wpt>
<wpt lat="37.14247" lon="-3.51950"><name>GRANADA. Cenes de la Vega</name><desc>Orientación: _NO_O_SO&#10;Nº vuelos en XContest: 7824&#10;Windy:&#10;https://www.windy.com/37.14247/-3.51950/wind?37.14247,-3.51950,13&#10;MeteoParapente:&#10;https://meteo-parapente.com/#/37.14247,-3.51950,13</desc></wpt>
<wpt lat="37.317683" lon="-3.55225"><name>GRANADA. Cogollos (La Atalaya)</name><desc>Orientación: _O_SO&#10;Nº vuelos en XContest: 22&#10;Windy:&#10;https://www.windy.com/37.317683/-3.55225/wind?37.317683,-3.55225,13&#10;MeteoParapente:&#10;https://meteo-parapente.com/#/37.317683,-3.55225,13</desc></wpt>
<wpt lat="37.25172" lon="-3.5444"><name>GRANADA. Cruz de Viznar</name><desc>Orientación: _O_SO&#10;Nº vuelos en XContest: 32&#10;Windy:&#10;https://www.windy.com/37.25172/-3.5444/wind?37.25172,-3.5444,13&#10;MeteoParapente:&#10;https://meteo-parapente.com/#/37.25172,-3.5444,13</desc></wpt>
<wpt lat="37.135333" lon="-3.499817"><name>GRANADA. El Purche</name><desc>Orientación: _O_NO_NO_SO&#10;Nº vuelos en XContest: 52&#10;Windy:&#10;https://www.windy.com/37.135333/-3.499817/wind?37.135333,-3.499817,13&#10;MeteoParapente:&#10;https://meteo-parapente.com/#/37.135333,-3.499817,13</desc></wpt>
<wpt lat="37.0413" lon="-3.75556"><name>GRANADA. Escuzar</name><desc>Orientación: _N&#10;Nº vuelos en XContest: 7&#10;Windy:&#10;https://www.windy.com/37.0413/-3.75556/wind?37.0413,-3.75556,13&#10;MeteoParapente:&#10;https://meteo-parapente.com/#/37.0413,-3.75556,13</desc></wpt>
<wpt lat="37.829882" lon="-2.506247"><name>GRANADA. Huéscar - La Encantada</name><desc>Orientación: _SO&#10;Nº vuelos en XContest: 155&#10;Windy:&#10;https://www.windy.com/37.829882/-2.506247/wind?37.829882,-2.506247,13&#10;MeteoParapente:&#10;https://meteo-parapente.com/#/37.829882,-2.506247,13</desc></wpt>
<wpt lat="36.775543" lon="-3.646028"><name>GRANADA. Itrabo</name><desc>Orientación: _S_SE_SO&#10;Nº vuelos en XContest: 423&#10;Windy:&#10;https://www.windy.com/36.775543/-3.646028/wind?36.775543,-3.646028,13&#10;MeteoParapente:&#10;https://meteo-parapente.com/#/36.775543,-3.646028,13</desc></wpt>
<wpt lat="37.569822" lon="-2.81353"><name>GRANADA. Jabalcón (Zújar)</name><desc>Orientación: _S_O_NO_N_E_SE&#10;Nº vuelos en XContest: 1020&#10;Windy:&#10;https://www.windy.com/37.569822/-2.81353/wind?37.569822,-2.81353,13&#10;MeteoParapente:&#10;https://meteo-parapente.com/#/37.569822,-2.81353,13</desc></wpt>
<wpt lat="37.037014" lon="-3.616586"><name>GRANADA. La Cruz de la Atalaya</name><desc>Orientación: _N_S&#10;Nº vuelos en XContest: 4&#10;Windy:&#10;https://www.windy.com/37.037014/-3.616586/wind?37.037014,-3.616586,13&#10;MeteoParapente:&#10;https://meteo-parapente.com/#/37.037014,-3.616586,13</desc></wpt>
<wpt lat="36.73085" lon="-3.7344"><name>GRANADA. La Herradura</name><desc>Orientación: _O_SO&#10;Nº vuelos en XContest: 447&#10;Windy:&#10;https://www.windy.com/36.73085/-3.7344/wind?36.73085,-3.7344,13&#10;MeteoParapente:&#10;https://meteo-parapente.com/#/36.73085,-3.7344,13</desc></wpt>
<wpt lat="36.74935" lon="-3.206067"><name>GRANADA. La Rábita</name><desc>Orientación: _SE&#10;Nº vuelos en XContest: 21&#10;Windy:&#10;https://www.windy.com/36.74935/-3.206067/wind?36.74935,-3.206067,13&#10;MeteoParapente:&#10;https://meteo-parapente.com/#/36.74935,-3.206067,13</desc></wpt>
<wpt lat="37.044128" lon="-3.599567"><name>GRANADA. La Silleta</name><desc>Orientación: _SE_N_NE&#10;Nº vuelos en XContest: 0&#10;Windy:&#10;https://www.windy.com/37.044128/-3.599567/wind?37.044128,-3.599567,13&#10;MeteoParapente:&#10;https://meteo-parapente.com/#/37.044128,-3.599567,13</desc></wpt>
<wpt lat="37.019483" lon="-3.015667"><name>GRANADA. Laroles</name><desc>Orientación: _SO_S&#10;Nº vuelos en XContest: 24&#10;Windy:&#10;https://www.windy.com/37.019483/-3.015667/wind?37.019483,-3.015667,13&#10;MeteoParapente:&#10;https://meteo-parapente.com/#/37.019483,-3.015667,13</desc></wpt>
<wpt lat="37.149572" lon="-4.149064"><name>GRANADA. Loja Levante</name><desc>Orientación: _E_NE_SE&#10;Nº vuelos en XContest: 134&#10;Windy:&#10;https://www.windy.com/37.149572/-4.149064/wind?37.149572,-4.149064,13&#10;MeteoParapente:&#10;https://meteo-parapente.com/#/37.149572,-4.149064,13</desc></wpt>
<wpt lat="37.14892" lon="-4.18232"><name>GRANADA. Loja Norte y Noroeste</name><desc>Orientación: _N_NO&#10;Nº vuelos en XContest: 124&#10;Windy:&#10;https://www.windy.com/37.14892/-4.18232/wind?37.14892,-4.18232,13&#10;MeteoParapente:&#10;https://meteo-parapente.com/#/37.14892,-4.18232,13</desc></wpt>
<wpt lat="37.13271" lon="-4.18379"><name>GRANADA. Loja Poniente</name><desc>Orientación: _O_NO&#10;Nº vuelos en XContest: 2825&#10;Windy:&#10;https://www.windy.com/37.13271/-4.18379/wind?37.13271,-4.18379,13&#10;MeteoParapente:&#10;https://meteo-parapente.com/#/37.13271,-4.18379,13</desc></wpt>
<wpt lat="36.765778" lon="-3.657948"><name>GRANADA. Loma del Gato</name><desc>Orientación: _S_SE_SO&#10;Nº vuelos en XContest: 169&#10;Windy:&#10;https://www.windy.com/36.765778/-3.657948/wind?36.765778,-3.657948,13&#10;MeteoParapente:&#10;https://meteo-parapente.com/#/36.765778,-3.657948,13</desc></wpt>
<wpt lat="36.87865" lon="-3.37608"><name>GRANADA. Los Tablones</name><desc>Orientación: _NO&#10;Nº vuelos en XContest: 25&#10;Windy:&#10;https://www.windy.com/36.87865/-3.37608/wind?36.87865,-3.37608,13&#10;MeteoParapente:&#10;https://meteo-parapente.com/#/36.87865,-3.37608,13</desc></wpt>
<wpt lat="37.811418" lon="-2.635537"><name>GRANADA. Marmolance</name><desc>Orientación: _SE&#10;Nº vuelos en XContest: 10&#10;Windy:&#10;https://www.windy.com/37.811418/-2.635537/wind?37.811418,-2.635537,13&#10;MeteoParapente:&#10;https://meteo-parapente.com/#/37.811418,-2.635537,13</desc></wpt>
<wpt lat="37.326498" lon="-3.81211"><name>GRANADA. Moclín</name><desc>Orientación: _S_SE&#10;Nº vuelos en XContest: 180&#10;Windy:&#10;https://www.windy.com/37.326498/-3.81211/wind?37.326498,-3.81211,13&#10;MeteoParapente:&#10;https://meteo-parapente.com/#/37.326498,-3.81211,13</desc></wpt>
<wpt lat="37.123303" lon="-3.432725"><name>GRANADA. Monte Cara (Sabinas)</name><desc>Orientación: _O&#10;Nº vuelos en XContest: 33&#10;Windy:&#10;https://www.windy.com/37.123303/-3.432725/wind?37.123303,-3.432725,13&#10;MeteoParapente:&#10;https://meteo-parapente.com/#/37.123303,-3.432725,13</desc></wpt>
<wpt lat="37.09183" lon="-3.0768"><name>GRANADA. Morrón del Mediodía</name><desc>Orientación: _N_NO&#10;Nº vuelos en XContest: 5&#10;Windy:&#10;https://www.windy.com/37.09183/-3.0768/wind?37.09183,-3.0768,13&#10;MeteoParapente:&#10;https://meteo-parapente.com/#/37.09183,-3.0768,13</desc></wpt>
<wpt lat="36.836833" lon="-3.13155"><name>GRANADA. Murtas</name><desc>Orientación: _S&#10;Nº vuelos en XContest: 195&#10;Windy:&#10;https://www.windy.com/36.836833/-3.13155/wind?36.836833,-3.13155,13&#10;MeteoParapente:&#10;https://meteo-parapente.com/#/36.836833,-3.13155,13</desc></wpt>
<wpt lat="36.833666" lon="-3.702087"><name>GRANADA. Otívar</name><desc>Orientación: _S_SE_SO_E&#10;Nº vuelos en XContest: 1370&#10;Windy:&#10;https://www.windy.com/36.833666/-3.702087/wind?36.833666,-3.702087,13&#10;MeteoParapente:&#10;https://meteo-parapente.com/#/36.833666,-3.702087,13</desc></wpt>
<wpt lat="36.817593" lon="-3.770325"><name>GRANADA. Peña Escrita</name><desc>Orientación: _S_SE&#10;Nº vuelos en XContest: 14&#10;Windy:&#10;https://www.windy.com/36.817593/-3.770325/wind?36.817593,-3.770325,13&#10;MeteoParapente:&#10;https://meteo-parapente.com/#/36.817593,-3.770325,13</desc></wpt>
<wpt lat="37.09267" lon="-3.1599"><name>GRANADA. Peñón del Puerto</name><desc>Orientación: _N&#10;Nº vuelos en XContest: 1&#10;Windy:&#10;https://www.windy.com/37.09267/-3.1599/wind?37.09267,-3.1599,13&#10;MeteoParapente:&#10;https://meteo-parapente.com/#/37.09267,-3.1599,13</desc></wpt>
<wpt lat="37.0114" lon="-3.442283"><name>GRANADA. Pico cel Caballo</name><desc>Orientación: _SO_O_NO&#10;Nº vuelos en XContest: 6&#10;Windy:&#10;https://www.windy.com/37.0114/-3.442283/wind?37.0114,-3.442283,13&#10;MeteoParapente:&#10;https://meteo-parapente.com/#/37.0114,-3.442283,13</desc></wpt>
<wpt lat="37.12348" lon="-3.25275"><name>GRANADA. Picón de Jerez</name><desc>Orientación: _E_NE_N&#10;Nº vuelos en XContest: 4&#10;Windy:&#10;https://www.windy.com/37.12348/-3.25275/wind?37.12348,-3.25275,13&#10;MeteoParapente:&#10;https://meteo-parapente.com/#/37.12348,-3.25275,13</desc></wpt>
<wpt lat="36.807043" lon="-3.302598"><name>GRANADA. Polopos  </name><desc>Orientación: _S&#10;Nº vuelos en XContest: 70&#10;Windy:&#10;https://www.windy.com/36.807043/-3.302598/wind?36.807043,-3.302598,13&#10;MeteoParapente:&#10;https://meteo-parapente.com/#/36.807043,-3.302598,13</desc></wpt>
<wpt lat="37.398067" lon="-3.288517"><name>GRANADA. Puntal</name><desc>Orientación: _N_NE&#10;Nº vuelos en XContest: 99&#10;Windy:&#10;https://www.windy.com/37.398067/-3.288517/wind?37.398067,-3.288517,13&#10;MeteoParapente:&#10;https://meteo-parapente.com/#/37.398067,-3.288517,13</desc></wpt>
<wpt lat="37.328587" lon="-3.488058"><name>GRANADA. Sierra Arana</name><desc>Orientación: _NO_N_SE_NE&#10;Nº vuelos en XContest: 76&#10;Windy:&#10;https://www.windy.com/37.328587/-3.488058/wind?37.328587,-3.488058,13&#10;MeteoParapente:&#10;https://meteo-parapente.com/#/37.328587,-3.488058,13</desc></wpt>
<wpt lat="36.93884" lon="-3.39415"><name>GRANADA. Soportújar (Órgiva)</name><desc>Orientación: _S_SO&#10;Nº vuelos en XContest: 73&#10;Windy:&#10;https://www.windy.com/36.93884/-3.39415/wind?36.93884,-3.39415,13&#10;MeteoParapente:&#10;https://meteo-parapente.com/#/36.93884,-3.39415,13</desc></wpt>
<wpt lat="38.0147" lon="-6.4494"><name>HUELVA. Arroyomolinos de León</name><desc>Orientación: _SSO_SO_S&#10;Nº vuelos en XContest: 312&#10;Windy:&#10;https://www.windy.com/38.0147/-6.4494/wind?38.0147,-6.4494,13&#10;MeteoParapente:&#10;https://meteo-parapente.com/#/38.0147,-6.4494,13</desc></wpt>
<wpt lat="37.010265" lon="-6.573270"><name>HUELVA. Matalascañas</name><desc>Orientación: _SO&#10;Nº vuelos en XContest: 790&#10;Windy:&#10;https://www.windy.com/37.010265/-6.573270/wind?37.010265,-6.573270,13&#10;MeteoParapente:&#10;https://meteo-parapente.com/#/37.010265,-6.573270,13</desc></wpt>
<wpt lat="37.04478" lon="-6.63632"><name>HUELVA. Matalascañas (duna I)</name><desc>Orientación: _SO&#10;Nº vuelos en XContest: 16&#10;Windy:&#10;https://www.windy.com/37.04478/-6.63632/wind?37.04478,-6.63632,13&#10;MeteoParapente:&#10;https://meteo-parapente.com/#/37.04478,-6.63632,13</desc></wpt>
<wpt lat="37.06995" lon="-6.68754"><name>HUELVA. Matalascañas (duna II)</name><desc>Orientación: _SO&#10;Nº vuelos en XContest: 12&#10;Windy:&#10;https://www.windy.com/37.06995/-6.68754/wind?37.06995,-6.68754,13&#10;MeteoParapente:&#10;https://meteo-parapente.com/#/37.06995,-6.68754,13</desc></wpt>
<wpt lat="37.10963" lon="-6.76757"><name>HUELVA. Mazagón (Matalascañas)</name><desc>Orientación: _SO&#10;Nº vuelos en XContest: 3&#10;Windy:&#10;https://www.windy.com/37.10963/-6.76757/wind?37.10963,-6.76757,13&#10;MeteoParapente:&#10;https://meteo-parapente.com/#/37.10963,-6.76757,13</desc></wpt>
<wpt lat="37.61305" lon="-4.012918"><name>JAÉN. Alcaudete - Caracolera</name><desc>Orientación: _O_OSO&#10;Nº vuelos en XContest: 93&#10;Windy:&#10;https://www.windy.com/37.61305/-4.012918/wind?37.61305,-4.012918,13&#10;MeteoParapente:&#10;https://meteo-parapente.com/#/37.61305,-4.012918,13</desc></wpt>
<wpt lat="37.591466" lon="-4.050201"><name>JAÉN. Alcaudete - Morrón</name><desc>Orientación: _N_NO_O_SO&#10;Nº vuelos en XContest: 58&#10;Windy:&#10;https://www.windy.com/37.591466/-4.050201/wind?37.591466,-4.050201,13&#10;MeteoParapente:&#10;https://meteo-parapente.com/#/37.591466,-4.050201,13</desc></wpt>
<wpt lat="37.94341" lon="-2.94718"><name>JAÉN. Burunchel</name><desc>Orientación: _NO_O&#10;Nº vuelos en XContest: 6&#10;Windy:&#10;https://www.windy.com/37.94341/-2.94718/wind?37.94341,-2.94718,13&#10;MeteoParapente:&#10;https://meteo-parapente.com/#/37.94341,-2.94718,13</desc></wpt>
<wpt lat="38.1687" lon="-3.5185"><name>JAÉN. Cabeza gorda</name><desc>Orientación: _O_SSO&#10;Nº vuelos en XContest: 5&#10;Windy:&#10;https://www.windy.com/38.1687/-3.5185/wind?38.1687,-3.5185,13&#10;MeteoParapente:&#10;https://meteo-parapente.com/#/38.1687,-3.5185,13</desc></wpt>
<wpt lat="38.316097" lon="-3.050722"><name>JAÉN. Chiclana</name><desc>Orientación: _O&#10;Nº vuelos en XContest: 122&#10;Windy:&#10;https://www.windy.com/38.316097/-3.050722/wind?38.316097,-3.050722,13&#10;MeteoParapente:&#10;https://meteo-parapente.com/#/38.316097,-3.050722,13</desc></wpt>
<wpt lat="38.25397" lon="-2.65864"><name>JAÉN. El Yelmo</name><desc>Orientación: _E_NE_O_SO_NO&#10;Nº vuelos en XContest: 1942&#10;Windy:&#10;https://www.windy.com/38.25397/-2.65864/wind?38.25397,-2.65864,13&#10;MeteoParapente:&#10;https://meteo-parapente.com/#/38.25397,-2.65864,13</desc></wpt>
<wpt lat="38.1575" lon="-3.6241"><name>JAÉN. La Garza levante</name><desc>Orientación: _E_ENE&#10;Nº vuelos en XContest: 35&#10;Windy:&#10;https://www.windy.com/38.1575/-3.6241/wind?38.1575,-3.6241,13&#10;MeteoParapente:&#10;https://meteo-parapente.com/#/38.1575,-3.6241,13</desc></wpt>
<wpt lat="38.1679" lon="-3.6097"><name>JAÉN. La Garza poniente</name><desc>Orientación: _OSO_SO&#10;Nº vuelos en XContest: 3&#10;Windy:&#10;https://www.windy.com/38.1679/-3.6097/wind?38.1679,-3.6097,13&#10;MeteoParapente:&#10;https://meteo-parapente.com/#/38.1679,-3.6097,13</desc></wpt>
<wpt lat="38.382567" lon="-2.7489"><name>JAÉN. La Golilla</name><desc>Orientación: _SO_S_O&#10;Nº vuelos en XContest: 64&#10;Windy:&#10;https://www.windy.com/38.382567/-2.7489/wind?38.382567,-2.7489,13&#10;MeteoParapente:&#10;https://meteo-parapente.com/#/38.382567,-2.7489,13</desc></wpt>
<wpt lat="37.722447" lon="-3.92645"><name>JAÉN. La Grana Martos</name><desc>Orientación: _NO_N_O&#10;Nº vuelos en XContest: 236&#10;Windy:&#10;https://www.windy.com/37.722447/-3.92645/wind?37.722447,-3.92645,13&#10;MeteoParapente:&#10;https://meteo-parapente.com/#/37.722447,-3.92645,13</desc></wpt>
<wpt lat="37.63133" lon="-3.77705"><name>JAÉN. La Pandera</name><desc>Orientación: _SO_SSO_OSO&#10;Nº vuelos en XContest: 204&#10;Windy:&#10;https://www.windy.com/37.63133/-3.77705/wind?37.63133,-3.77705,13&#10;MeteoParapente:&#10;https://meteo-parapente.com/#/37.63133,-3.77705,13</desc></wpt>
<wpt lat="38.02787" lon="-2.99715"><name>JAÉN. Los Vilchetes</name><desc>Orientación: _O&#10;Nº vuelos en XContest: 4&#10;Windy:&#10;https://www.windy.com/38.02787/-2.99715/wind?38.02787,-2.99715,13&#10;MeteoParapente:&#10;https://meteo-parapente.com/#/38.02787,-2.99715,13</desc></wpt>
<wpt lat="37.764853" lon="-3.571025"><name>JAÉN. Mojon Blanco Mancha Real</name><desc>Orientación: _N&#10;Nº vuelos en XContest: 0&#10;Windy:&#10;https://www.windy.com/37.764853/-3.571025/wind?37.764853,-3.571025,13&#10;MeteoParapente:&#10;https://meteo-parapente.com/#/37.764853,-3.571025,13</desc></wpt>
<wpt lat="38.0292" lon="-2.90907"><name>JAÉN. Pardal</name><desc>Orientación: _O_SO_E&#10;Nº vuelos en XContest: 0&#10;Windy:&#10;https://www.windy.com/38.0292/-2.90907/wind?38.0292,-2.90907,13&#10;MeteoParapente:&#10;https://meteo-parapente.com/#/38.0292,-2.90907,13</desc></wpt>
<wpt lat="37.752336" lon="-3.646255"><name>JAÉN. Pegalajar - Siete Pilillas</name><desc>Orientación: _ONO_NO&#10;Nº vuelos en XContest: 5217&#10;Windy:&#10;https://www.windy.com/37.752336/-3.646255/wind?37.752336,-3.646255,13&#10;MeteoParapente:&#10;https://meteo-parapente.com/#/37.752336,-3.646255,13</desc></wpt>
<wpt lat="37.76427" lon="-3.60460"><name>JAÉN. Peña del Águila</name><desc>Orientación: _NO&#10;Nº vuelos en XContest: 276&#10;Windy:&#10;https://www.windy.com/37.76427/-3.60460/wind?37.76427,-3.60460,13&#10;MeteoParapente:&#10;https://meteo-parapente.com/#/37.76427,-3.60460,13</desc></wpt>
<wpt lat="38.01262" lon="-2.78652"><name>JAÉN. Pico Banderillas</name><desc>Orientación: _N_NO&#10;Nº vuelos en XContest: 1&#10;Windy:&#10;https://www.windy.com/38.01262/-2.78652/wind?38.01262,-2.78652,13&#10;MeteoParapente:&#10;https://meteo-parapente.com/#/38.01262,-2.78652,13</desc></wpt>
<wpt lat="38.368481" lon="-2.554303"><name>JAÉN. Puntal de Siles</name><desc>Orientación: _NO_N_O&#10;Nº vuelos en XContest: 80&#10;Windy:&#10;https://www.windy.com/38.368481/-2.554303/wind?38.368481,-2.554303,13&#10;MeteoParapente:&#10;https://meteo-parapente.com/#/38.368481,-2.554303,13</desc></wpt>
<wpt lat="37.989326" lon="-3.091859"><name>JAÉN. Santo Tomé</name><desc>Orientación: _O_E&#10;Nº vuelos en XContest: 0&#10;Windy:&#10;https://www.windy.com/37.989326/-3.091859/wind?37.989326,-3.091859,13&#10;MeteoParapente:&#10;https://meteo-parapente.com/#/37.989326,-3.091859,13</desc></wpt>
<wpt lat="38.302333" lon="-2.6454"><name>JAÉN. Segura de la Sierra</name><desc>Orientación: _O_NO&#10;Nº vuelos en XContest: 69&#10;Windy:&#10;https://www.windy.com/38.302333/-2.6454/wind?38.302333,-2.6454,13&#10;MeteoParapente:&#10;https://meteo-parapente.com/#/38.302333,-2.6454,13</desc></wpt>
<wpt lat="37.599675" lon="-4.030719"><name>JAÉN. Sierra Ahillos</name><desc>Orientación: _N_S_O_SO&#10;Nº vuelos en XContest: 6&#10;Windy:&#10;https://www.windy.com/37.599675/-4.030719/wind?37.599675,-4.030719,13&#10;MeteoParapente:&#10;https://meteo-parapente.com/#/37.599675,-4.030719,13</desc></wpt>
<wpt lat="37.620931" lon="-4.012955"><name>JAÉN. Sierra Caracolera</name><desc>Orientación: _N_ESE&#10;Nº vuelos en XContest: 97&#10;Windy:&#10;https://www.windy.com/37.620931/-4.012955/wind?37.620931,-4.012955,13&#10;MeteoParapente:&#10;https://meteo-parapente.com/#/37.620931,-4.012955,13</desc></wpt>
<wpt lat="37.7339" lon="-3.527183"><name>JAÉN. Sierra de Almadén</name><desc>Orientación: _N_O_S_SO_NO&#10;Nº vuelos en XContest: 8&#10;Windy:&#10;https://www.windy.com/37.7339/-3.527183/wind?37.7339,-3.527183,13&#10;MeteoParapente:&#10;https://meteo-parapente.com/#/37.7339,-3.527183,13</desc></wpt>
<wpt lat="38.2138" lon="-3.4896"><name>JAÉN. Vilches Jarabancil</name><desc>Orientación: _S_SO_SE&#10;Nº vuelos en XContest: 10&#10;Windy:&#10;https://www.windy.com/38.2138/-3.4896/wind?38.2138,-3.4896,13&#10;MeteoParapente:&#10;https://meteo-parapente.com/#/38.2138,-3.4896,13</desc></wpt>
<wpt lat="37.1554" lon="-4.46635"><name>MÁLAGA. Algaidas</name><desc>Orientación: _N_NNO_NNE&#10;Nº vuelos en XContest: 104&#10;Windy:&#10;https://www.windy.com/37.1554/-4.46635/wind?37.1554,-4.46635,13&#10;MeteoParapente:&#10;https://meteo-parapente.com/#/37.1554,-4.46635,13</desc></wpt>
<wpt lat="36.614594" lon="-4.558819"><name>MÁLAGA. Benalmádena</name><desc>Orientación: _SE&#10;Nº vuelos en XContest: 1&#10;Windy:&#10;https://www.windy.com/36.614594/-4.558819/wind?36.614594,-4.558819,13&#10;MeteoParapente:&#10;https://meteo-parapente.com/#/36.614594,-4.558819,13</desc></wpt>
<wpt lat="36.743536" lon="-3.921375"><name>MÁLAGA. Calaceite-Torrox</name><desc>Orientación: _E_O&#10;Nº vuelos en XContest: 7&#10;Windy:&#10;https://www.windy.com/36.743536/-3.921375/wind?36.743536,-3.921375,13&#10;MeteoParapente:&#10;https://meteo-parapente.com/#/36.743536,-3.921375,13</desc></wpt>
<wpt lat="36.751956" lon="-3.9311"><name>MÁLAGA. Calaceite-Torrox</name><desc>Orientación: _E&#10;Nº vuelos en XContest: 4&#10;Windy:&#10;https://www.windy.com/36.751956/-3.9311/wind?36.751956,-3.9311,13&#10;MeteoParapente:&#10;https://meteo-parapente.com/#/36.751956,-3.9311,13</desc></wpt>
<wpt lat="36.945001" lon="-5.024736"><name>MÁLAGA. Cañete la Real</name><desc>Orientación: _SE_SSE&#10;Nº vuelos en XContest: 387&#10;Windy:&#10;https://www.windy.com/36.945001/-5.024736/wind?36.945001,-5.024736,13&#10;MeteoParapente:&#10;https://meteo-parapente.com/#/36.945001,-5.024736,13</desc></wpt>
<wpt lat="36.83535" lon="-3.95747"><name>MÁLAGA. Cómpeta</name><desc>Orientación: _S_SO&#10;Nº vuelos en XContest: 13&#10;Windy:&#10;https://www.windy.com/36.83535/-3.95747/wind?36.83535,-3.95747,13&#10;MeteoParapente:&#10;https://meteo-parapente.com/#/36.83535,-3.95747,13</desc></wpt>
<wpt lat="36.82562" lon="-3.97368"><name>MÁLAGA. Cómpeta Arberdini</name><desc>Orientación: _SE&#10;Nº vuelos en XContest: 10&#10;Windy:&#10;https://www.windy.com/36.82562/-3.97368/wind?36.82562,-3.97368,13&#10;MeteoParapente:&#10;https://meteo-parapente.com/#/36.82562,-3.97368,13</desc></wpt>
<wpt lat="36.98936" lon="-4.91476"><name>MÁLAGA. La Camorra</name><desc>Orientación: _N&#10;Nº vuelos en XContest: 282&#10;Windy:&#10;https://www.windy.com/36.98936/-4.91476/wind?36.98936,-4.91476,13&#10;MeteoParapente:&#10;https://meteo-parapente.com/#/36.98936,-4.91476,13</desc></wpt>
<wpt lat="36.9521" lon="-4.71234"><name>MÁLAGA. La Capilla</name><desc>Orientación: _N_NO&#10;Nº vuelos en XContest: 108&#10;Windy:&#10;https://www.windy.com/36.9521/-4.71234/wind?36.9521,-4.71234,13&#10;MeteoParapente:&#10;https://meteo-parapente.com/#/36.9521,-4.71234,13</desc></wpt>
<wpt lat="36.96925" lon="-4.20905"><name>MÁLAGA. Puerto del Sol</name><desc>Orientación: _S&#10;Nº vuelos en XContest: 36&#10;Windy:&#10;https://www.windy.com/36.96925/-4.20905/wind?36.96925,-4.20905,13&#10;MeteoParapente:&#10;https://meteo-parapente.com/#/36.96925,-4.20905,13</desc></wpt>
<wpt lat="36.838889" lon="-5.23825"><name>MÁLAGA. Ronda La Vieja</name><desc>Orientación: _N_NO&#10;Nº vuelos en XContest: 466&#10;Windy:&#10;https://www.windy.com/36.838889/-5.23825/wind?36.838889,-5.23825,13&#10;MeteoParapente:&#10;https://meteo-parapente.com/#/36.838889,-5.23825,13</desc></wpt>
<wpt lat="36.799622" lon="-4.850267"><name>MÁLAGA. Sierra Prieta</name><desc>Orientación: _N&#10;Nº vuelos en XContest: 0&#10;Windy:&#10;https://www.windy.com/36.799622/-4.850267/wind?36.799622,-4.850267,13&#10;MeteoParapente:&#10;https://meteo-parapente.com/#/36.799622,-4.850267,13</desc></wpt>
<wpt lat="36.98005" lon="-4.92600"><name>MÁLAGA. Teba</name><desc>Orientación: _NO&#10;Nº vuelos en XContest: 580&#10;Windy:&#10;https://www.windy.com/36.98005/-4.92600/wind?36.98005,-4.92600,13&#10;MeteoParapente:&#10;https://meteo-parapente.com/#/36.98005,-4.92600,13</desc></wpt>
<wpt lat="36.931417" lon="-4.720683"><name>MÁLAGA. Valle de Abdalajis</name><desc>Orientación: _S&#10;Nº vuelos en XContest: 152&#10;Windy:&#10;https://www.windy.com/36.931417/-4.720683/wind?36.931417,-4.720683,13&#10;MeteoParapente:&#10;https://meteo-parapente.com/#/36.931417,-4.720683,13</desc></wpt>
<wpt lat="37.027967" lon="-4.279822"><name>MÁLAGA. Villanueva del Trabuco</name><desc>Orientación: _NO&#10;Nº vuelos en XContest: 45&#10;Windy:&#10;https://www.windy.com/37.027967/-4.279822/wind?37.027967,-4.279822,13&#10;MeteoParapente:&#10;https://meteo-parapente.com/#/37.027967,-4.279822,13</desc></wpt>
<wpt lat="38.0763" lon="-5.8200"><name>SEVILLA. Guadalcanal</name><desc>Orientación: _SSO_S_SO&#10;Nº vuelos en XContest: 34&#10;Windy:&#10;https://www.windy.com/38.0763/-5.8200/wind?38.0763,-5.8200,13&#10;MeteoParapente:&#10;https://meteo-parapente.com/#/38.0763,-5.8200,13</desc></wpt>
<wpt lat="37.7591" lon="-5.4621"><name>SEVILLA. La Puebla de los Infantes</name><desc>Orientación: _N_NNO_NNE&#10;Nº vuelos en XContest: 10&#10;Windy:&#10;https://www.windy.com/37.7591/-5.4621/wind?37.7591,-5.4621,13&#10;MeteoParapente:&#10;https://meteo-parapente.com/#/37.7591,-5.4621,13</desc></wpt>
<wpt lat="37.00557" lon="-5.54697"><name>SEVILLA. Montellano</name><desc>Orientación: _E_NE_O_SE&#10;Nº vuelos en XContest: 51&#10;Windy:&#10;https://www.windy.com/37.00557/-5.54697/wind?37.00557,-5.54697,13&#10;MeteoParapente:&#10;https://meteo-parapente.com/#/37.00557,-5.54697,13</desc></wpt>
<wpt lat="42.525839" lon="0.469301"><name>HUESCA. Abedules (Castejón de Sos)</name><desc>Orientación: _E&#10;Nº vuelos en XContest: 4&#10;Windy:&#10;https://www.windy.com/42.525839/0.469301/wind?42.525839,0.469301,13&#10;MeteoParapente:&#10;https://meteo-parapente.com/#/42.525839,0.469301,13</desc></wpt>
<wpt lat="42.601" lon="-0.495"><name>HUESCA. Albarún (Alvarín)</name><desc>Orientación: _SSO_S_SO&#10;Nº vuelos en XContest: 9&#10;Windy:&#10;https://www.windy.com/42.601/-0.495/wind?42.601,-0.495,13&#10;MeteoParapente:&#10;https://meteo-parapente.com/#/42.601,-0.495,13</desc></wpt>
<wpt lat="41.554813" lon="0.261405"><name>HUESCA. Ampriu Miralsot</name><desc>Orientación: _NE&#10;Nº vuelos en XContest: 2&#10;Windy:&#10;https://www.windy.com/41.554813/0.261405/wind?41.554813,0.261405,13&#10;MeteoParapente:&#10;https://meteo-parapente.com/#/41.554813,0.261405,13</desc></wpt>
<wpt lat="42.631" lon="0.657"><name>HUESCA. Aneto</name><desc>Orientación: _NNO_NO_N&#10;Nº vuelos en XContest: 13&#10;Windy:&#10;https://www.windy.com/42.631/0.657/wind?42.631,0.657,13&#10;MeteoParapente:&#10;https://meteo-parapente.com/#/42.631,0.657,13</desc></wpt>
<wpt lat="42.7635" lon="-0.5658"><name>HUESCA. Aspe</name><desc>Orientación: _S_SE_SO&#10;Nº vuelos en XContest: 13&#10;Windy:&#10;https://www.windy.com/42.7635/-0.5658/wind?42.7635,-0.5658,13&#10;MeteoParapente:&#10;https://meteo-parapente.com/#/42.7635,-0.5658,13</desc></wpt>
<wpt lat="42.679" lon="-0.466"><name>HUESCA. Bacún</name><desc>Orientación: _S_SO_O&#10;Nº vuelos en XContest: 14&#10;Windy:&#10;https://www.windy.com/42.679/-0.466/wind?42.679,-0.466,13&#10;MeteoParapente:&#10;https://meteo-parapente.com/#/42.679,-0.466,13</desc></wpt>
<wpt lat="42.8376523" lon="-0.2885427"><name>HUESCA. Balaitous</name><desc>Orientación: _SSO_SE_SO&#10;Nº vuelos en XContest: 3&#10;Windy:&#10;https://www.windy.com/42.8376523/-0.2885427/wind?42.8376523,-0.2885427,13&#10;MeteoParapente:&#10;https://meteo-parapente.com/#/42.8376523,-0.2885427,13</desc></wpt>
<wpt lat="42.6315" lon="-0.3114"><name>HUESCA. Biescas</name><desc>Orientación: _S_SO&#10;Nº vuelos en XContest: 28&#10;Windy:&#10;https://www.windy.com/42.6315/-0.3114/wind?42.6315,-0.3114,13&#10;MeteoParapente:&#10;https://meteo-parapente.com/#/42.6315,-0.3114,13</desc></wpt>
<wpt lat="42.7885" lon="-0.6402"><name>HUESCA. Bisaurín</name><desc>Orientación: _SO_S&#10;Nº vuelos en XContest: 6&#10;Windy:&#10;https://www.windy.com/42.7885/-0.6402/wind?42.7885,-0.6402,13&#10;MeteoParapente:&#10;https://meteo-parapente.com/#/42.7885,-0.6402,13</desc></wpt>
<wpt lat="42.7177" lon="-0.5673"><name>HUESCA. Blancas</name><desc>Orientación: _S_SSE_SO_SE&#10;Nº vuelos en XContest: 167&#10;Windy:&#10;https://www.windy.com/42.7177/-0.5673/wind?42.7177,-0.5673,13&#10;MeteoParapente:&#10;https://meteo-parapente.com/#/42.7177,-0.5673,13</desc></wpt>
<wpt lat="42.5519" lon="0.4393"><name>HUESCA. Bordas (Castejón de Sos)</name><desc>Orientación: _E&#10;Nº vuelos en XContest: 22&#10;Windy:&#10;https://www.windy.com/42.5519/0.4393/wind?42.5519,0.4393,13&#10;MeteoParapente:&#10;https://meteo-parapente.com/#/42.5519,0.4393,13</desc></wpt>
<wpt lat="42.6546" lon="-0.3690"><name>HUESCA. Burrambalo</name><desc>Orientación: _S_SO_SE_NNE&#10;Nº vuelos en XContest: 11&#10;Windy:&#10;https://www.windy.com/42.6546/-0.3690/wind?42.6546,-0.3690,13&#10;MeteoParapente:&#10;https://meteo-parapente.com/#/42.6546,-0.3690,13</desc></wpt>
<wpt lat="42.7755" lon="-0.5349"><name>HUESCA. Candanchú</name><desc>Orientación: _N&#10;Nº vuelos en XContest: 29&#10;Windy:&#10;https://www.windy.com/42.7755/-0.5349/wind?42.7755,-0.5349,13&#10;MeteoParapente:&#10;https://meteo-parapente.com/#/42.7755,-0.5349,13</desc></wpt>
<wpt lat="41.8164" lon="-0.0049"><name>HUESCA. Castelflorite</name><desc>Orientación: _SE_E&#10;Nº vuelos en XContest: 21&#10;Windy:&#10;https://www.windy.com/41.8164/-0.0049/wind?41.8164,-0.0049,13&#10;MeteoParapente:&#10;https://meteo-parapente.com/#/41.8164,-0.0049,13</desc></wpt>
<wpt lat="41.8950" lon="0.5322"><name>HUESCA. Castillonroy</name><desc>Orientación: _SO_S&#10;Nº vuelos en XContest: 880&#10;Windy:&#10;https://www.windy.com/41.8950/0.5322/wind?41.8950,0.5322,13&#10;MeteoParapente:&#10;https://meteo-parapente.com/#/41.8950,0.5322,13</desc></wpt>
<wpt lat="42.442" lon="0.406"><name>HUESCA. Cervín</name><desc>Orientación: _S_SSO&#10;Nº vuelos en XContest: 76&#10;Windy:&#10;https://www.windy.com/42.442/0.406/wind?42.442,0.406,13&#10;MeteoParapente:&#10;https://meteo-parapente.com/#/42.442,0.406,13</desc></wpt>
<wpt lat="42.5214" lon="0.4324"><name>HUESCA. Chía (Castejón de Sos)</name><desc>Orientación: _E&#10;Nº vuelos en XContest: 25&#10;Windy:&#10;https://www.windy.com/42.5214/0.4324/wind?42.5214,0.4324,13&#10;MeteoParapente:&#10;https://meteo-parapente.com/#/42.5214,0.4324,13</desc></wpt>
<wpt lat="42.567874" lon="0.554123"><name>HUESCA. Cogulla</name><desc>Orientación: _S&#10;Nº vuelos en XContest: 1&#10;Windy:&#10;https://www.windy.com/42.567874/0.554123/wind?42.567874,0.554123,13&#10;MeteoParapente:&#10;https://meteo-parapente.com/#/42.567874,0.554123,13</desc></wpt>
<wpt lat="42.154" lon="0.255"><name>HUESCA. El Grado (Tozal Gordo)</name><desc>Orientación: _SO_O_S&#10;Nº vuelos en XContest: 509&#10;Windy:&#10;https://www.windy.com/42.154/0.255/wind?42.154,0.255,13&#10;MeteoParapente:&#10;https://meteo-parapente.com/#/42.154,0.255,13</desc></wpt>
<wpt lat="42.744089" lon="-0.716681"><name>HUESCA. Eras de Carpintero</name><desc>Orientación: _SSE_S_SE&#10;Nº vuelos en XContest: 53&#10;Windy:&#10;https://www.windy.com/42.744089/-0.716681/wind?42.744089,-0.716681,13&#10;MeteoParapente:&#10;https://meteo-parapente.com/#/42.744089,-0.716681,13</desc></wpt>
<wpt lat="42.8511" lon="-0.8399"><name>HUESCA. Ezkaurre</name><desc>Orientación: _S_SO&#10;Nº vuelos en XContest: 30&#10;Windy:&#10;https://www.windy.com/42.8511/-0.8399/wind?42.8511,-0.8399,13&#10;MeteoParapente:&#10;https://meteo-parapente.com/#/42.8511,-0.8399,13</desc></wpt>
<wpt lat="42.50245" lon="0.69846"><name>HUESCA. Ginaste</name><desc>Orientación: _NE_SO&#10;Nº vuelos en XContest: 41&#10;Windy:&#10;https://www.windy.com/42.50245/0.69846/wind?42.50245,0.69846,13&#10;MeteoParapente:&#10;https://meteo-parapente.com/#/42.50245,0.69846,13</desc></wpt>
<wpt lat="42.7409" lon="-0.7288"><name>HUESCA. Hecho</name><desc>Orientación: _SO_S_O_ONO_N_NO_SSE_SE&#10;Nº vuelos en XContest: 532&#10;Windy:&#10;https://www.windy.com/42.7409/-0.7288/wind?42.7409,-0.7288,13&#10;MeteoParapente:&#10;https://meteo-parapente.com/#/42.7409,-0.7288,13</desc></wpt>
<wpt lat="42.7971" lon="-0.3183"><name>HUESCA. Ibonciecho</name><desc>Orientación: _SO_S_O_NO&#10;Nº vuelos en XContest: 1&#10;Windy:&#10;https://www.windy.com/42.7971/-0.3183/wind?42.7971,-0.3183,13&#10;MeteoParapente:&#10;https://meteo-parapente.com/#/42.7971,-0.3183,13</desc></wpt>
<wpt lat="42.6404" lon="-0.2877"><name>HUESCA. Iguarra</name><desc>Orientación: _S_SE&#10;Nº vuelos en XContest: 6&#10;Windy:&#10;https://www.windy.com/42.6404/-0.2877/wind?42.6404,-0.2877,13&#10;MeteoParapente:&#10;https://meteo-parapente.com/#/42.6404,-0.2877,13</desc></wpt>
<wpt lat="42.5297" lon="0.5254"><name>HUESCA. Intermedio (Castejón de Sos)</name><desc>Orientación: _SO&#10;Nº vuelos en XContest: 171&#10;Windy:&#10;https://www.windy.com/42.5297/0.5254/wind?42.5297,0.5254,13&#10;MeteoParapente:&#10;https://meteo-parapente.com/#/42.5297,0.5254,13</desc></wpt>
<wpt lat="42.7934" lon="-0.5054"><name>HUESCA. La Raca</name><desc>Orientación: _N_SE_S_SO_O_NO&#10;Nº vuelos en XContest: 22&#10;Windy:&#10;https://www.windy.com/42.7934/-0.5054/wind?42.7934,-0.5054,13&#10;MeteoParapente:&#10;https://meteo-parapente.com/#/42.7934,-0.5054,13</desc></wpt>
<wpt lat="42.53372" lon="0.55220"><name>HUESCA. Liri (Castejón de Sos)</name><desc>Orientación: _SO_S_SE&#10;Nº vuelos en XContest: 3479&#10;Windy:&#10;https://www.windy.com/42.53372/0.55220/wind?42.53372,0.55220,13&#10;MeteoParapente:&#10;https://meteo-parapente.com/#/42.53372,0.55220,13</desc></wpt>
<wpt lat="42.33249" lon="-0.60901"><name>HUESCA. Loarre</name><desc>Orientación: _SSO_S_SSE_SO&#10;Nº vuelos en XContest: 1430&#10;Windy:&#10;https://www.windy.com/42.33249/-0.60901/wind?42.33249,-0.60901,13&#10;MeteoParapente:&#10;https://meteo-parapente.com/#/42.33249,-0.60901,13</desc></wpt>
<wpt lat="42.5934" lon="-0.5677"><name>HUESCA. Los Braulios</name><desc>Orientación: _S_SO&#10;Nº vuelos en XContest: 48&#10;Windy:&#10;https://www.windy.com/42.5934/-0.5677/wind?42.5934,-0.5677,13&#10;MeteoParapente:&#10;https://meteo-parapente.com/#/42.5934,-0.5677,13</desc></wpt>
<wpt lat="42.6948" lon="-0.2710"><name>HUESCA. Mandilar</name><desc>Orientación: _NO_N_E_NE_S_SE_SO_O&#10;Nº vuelos en XContest: 21&#10;Windy:&#10;https://www.windy.com/42.6948/-0.2710/wind?42.6948,-0.2710,13&#10;MeteoParapente:&#10;https://meteo-parapente.com/#/42.6948,-0.2710,13</desc></wpt>
<wpt lat="41.486258" lon="0.36699"><name>HUESCA. Massalcoreig</name><desc>Orientación: _NO&#10;Nº vuelos en XContest: 368&#10;Windy:&#10;https://www.windy.com/41.486258/0.36699/wind?41.486258,0.36699,13&#10;MeteoParapente:&#10;https://meteo-parapente.com/#/41.486258,0.36699,13</desc></wpt>
<wpt lat="42.8073" lon="-0.3114"><name>HUESCA. Musales</name><desc>Orientación: _S_SO&#10;Nº vuelos en XContest: 2&#10;Windy:&#10;https://www.windy.com/42.8073/-0.3114/wind?42.8073,-0.3114,13&#10;MeteoParapente:&#10;https://meteo-parapente.com/#/42.8073,-0.3114,13</desc></wpt>
<wpt lat="42.516" lon="-0.288"><name>HUESCA. Orosia</name><desc>Orientación: _S_SO_SE&#10;Nº vuelos en XContest: 126&#10;Windy:&#10;https://www.windy.com/42.516/-0.288/wind?42.516,-0.288,13&#10;MeteoParapente:&#10;https://meteo-parapente.com/#/42.516,-0.288,13</desc></wpt>
<wpt lat="42.5344" lon="-0.2683"><name>HUESCA. Oturia</name><desc>Orientación: _NO_O_SO_S&#10;Nº vuelos en XContest: 33&#10;Windy:&#10;https://www.windy.com/42.5344/-0.2683/wind?42.5344,-0.2683,13&#10;MeteoParapente:&#10;https://meteo-parapente.com/#/42.5344,-0.2683,13</desc></wpt>
<wpt lat="42.52868" lon="0.54047"><name>HUESCA. Pedras Blancas (Castejón de Sos)</name><desc>Orientación: _SO_S_SE&#10;Nº vuelos en XContest: 750&#10;Windy:&#10;https://www.windy.com/42.52868/0.54047/wind?42.52868,0.54047,13&#10;MeteoParapente:&#10;https://meteo-parapente.com/#/42.52868,0.54047,13</desc></wpt>
<wpt lat="42.465809" lon="-0.140433"><name>HUESCA. Peña Canciás</name><desc>Orientación: _N_NO_S_SO&#10;Nº vuelos en XContest: 2&#10;Windy:&#10;https://www.windy.com/42.465809/-0.140433/wind?42.465809,-0.140433,13&#10;MeteoParapente:&#10;https://meteo-parapente.com/#/42.465809,-0.140433,13</desc></wpt>
<wpt lat="42.481" lon="0.205"><name>HUESCA. Peña Montañesa</name><desc>Orientación: _S_SE_SO&#10;Nº vuelos en XContest: 178&#10;Windy:&#10;https://www.windy.com/42.481/0.205/wind?42.481,0.205,13&#10;MeteoParapente:&#10;https://meteo-parapente.com/#/42.481,0.205,13</desc></wpt>
<wpt lat="42.520" lon="-0.544"><name>HUESCA. Peña Oroel</name><desc>Orientación: _S_SE_SO&#10;Nº vuelos en XContest: 108&#10;Windy:&#10;https://www.windy.com/42.520/-0.544/wind?42.520,-0.544,13&#10;MeteoParapente:&#10;https://meteo-parapente.com/#/42.520,-0.544,13</desc></wpt>
<wpt lat="42.6780" lon="-0.2678"><name>HUESCA. Peña Sabocos</name><desc>Orientación: _S_SO_SE&#10;Nº vuelos en XContest: 5&#10;Windy:&#10;https://www.windy.com/42.6780/-0.2678/wind?42.6780,-0.2678,13&#10;MeteoParapente:&#10;https://meteo-parapente.com/#/42.6780,-0.2678,13</desc></wpt>
<wpt lat="42.745" lon="-0.294"><name>HUESCA. Pueyo - Frondón</name><desc>Orientación: _S_SO&#10;Nº vuelos en XContest: 107&#10;Windy:&#10;https://www.windy.com/42.745/-0.294/wind?42.745,-0.294,13&#10;MeteoParapente:&#10;https://meteo-parapente.com/#/42.745,-0.294,13</desc></wpt>
<wpt lat="42.51160" lon="-0.50108"><name>HUESCA. Punta Bazials</name><desc>Orientación: _S_SO_SE_N_NO&#10;Nº vuelos en XContest: 4&#10;Windy:&#10;https://www.windy.com/42.51160/-0.50108/wind?42.51160,-0.50108,13&#10;MeteoParapente:&#10;https://meteo-parapente.com/#/42.51160,-0.50108,13</desc></wpt>
<wpt lat="42.5317" lon="-0.0959"><name>HUESCA. Punta Corona</name><desc>Orientación: _N_E_SE_S_SO_O_NO&#10;Nº vuelos en XContest: 24&#10;Windy:&#10;https://www.windy.com/42.5317/-0.0959/wind?42.5317,-0.0959,13&#10;MeteoParapente:&#10;https://meteo-parapente.com/#/42.5317,-0.0959,13</desc></wpt>
<wpt lat="42.574673" lon="-0.350999"><name>HUESCA. Punta Güe</name><desc>Orientación: _S_SE&#10;Nº vuelos en XContest: 12&#10;Windy:&#10;https://www.windy.com/42.574673/-0.350999/wind?42.574673,-0.350999,13&#10;MeteoParapente:&#10;https://meteo-parapente.com/#/42.574673,-0.350999,13</desc></wpt>
<wpt lat="42.4083" lon="-0.6748"><name>HUESCA. Punta Peiró</name><desc>Orientación: _S_SE&#10;Nº vuelos en XContest: 1&#10;Windy:&#10;https://www.windy.com/42.4083/-0.6748/wind?42.4083,-0.6748,13&#10;MeteoParapente:&#10;https://meteo-parapente.com/#/42.4083,-0.6748,13</desc></wpt>
<wpt lat="42.245358" lon="-0.656294"><name>HUESCA. Quinzano</name><desc>Orientación: _E&#10;Nº vuelos en XContest: 0&#10;Windy:&#10;https://www.windy.com/42.245358/-0.656294/wind?42.245358,-0.656294,13&#10;MeteoParapente:&#10;https://meteo-parapente.com/#/42.245358,-0.656294,13</desc></wpt>
<wpt lat="42.52417" lon="0.49966"><name>HUESCA. Rials (Castejón de Sos)</name><desc>Orientación: _S_SO&#10;Nº vuelos en XContest: 2008&#10;Windy:&#10;https://www.windy.com/42.52417/0.49966/wind?42.52417,0.49966,13&#10;MeteoParapente:&#10;https://meteo-parapente.com/#/42.52417,0.49966,13</desc></wpt>
<wpt lat="42.352" lon="-0.724"><name>HUESCA. Riglos</name><desc>Orientación: _S_SO_SE&#10;Nº vuelos en XContest: 9&#10;Windy:&#10;https://www.windy.com/42.352/-0.724/wind?42.352,-0.724,13&#10;MeteoParapente:&#10;https://meteo-parapente.com/#/42.352,-0.724,13</desc></wpt>
<wpt lat="42.330400" lon="0.622211"><name>HUESCA. Roca Cirera (Serraduy)</name><desc>Orientación: _O_SO_S_SE_E&#10;Nº vuelos en XContest: 4&#10;Windy:&#10;https://www.windy.com/42.330400/0.622211/wind?42.330400,0.622211,13&#10;MeteoParapente:&#10;https://meteo-parapente.com/#/42.330400,0.622211,13</desc></wpt>
<wpt lat="42.5589" lon="0.4267"><name>HUESCA. Sahún - Llisat (Castejón de Sos)</name><desc>Orientación: _NNE_NE&#10;Nº vuelos en XContest: 65&#10;Windy:&#10;https://www.windy.com/42.5589/0.4267/wind?42.5589,0.4267,13&#10;MeteoParapente:&#10;https://meteo-parapente.com/#/42.5589,0.4267,13</desc></wpt>
<wpt lat="42.8019" lon="-0.3027"><name>HUESCA. Sanchacollons</name><desc>Orientación: _S_SO&#10;Nº vuelos en XContest: 3&#10;Windy:&#10;https://www.windy.com/42.8019/-0.3027/wind?42.8019,-0.3027,13&#10;MeteoParapente:&#10;https://meteo-parapente.com/#/42.8019,-0.3027,13</desc></wpt>
<wpt lat="42.6549" lon="-0.2660"><name>HUESCA. Sarasé</name><desc>Orientación: _S_SE_SO_O_E&#10;Nº vuelos en XContest: 7&#10;Windy:&#10;https://www.windy.com/42.6549/-0.2660/wind?42.6549,-0.2660,13&#10;MeteoParapente:&#10;https://meteo-parapente.com/#/42.6549,-0.2660,13</desc></wpt>
<wpt lat="42.7080" lon="-0.5777"><name>HUESCA. Sayerri</name><desc>Orientación: _S_SSE_SO_SE&#10;Nº vuelos en XContest: 262&#10;Windy:&#10;https://www.windy.com/42.7080/-0.5777/wind?42.7080,-0.5777,13&#10;MeteoParapente:&#10;https://meteo-parapente.com/#/42.7080,-0.5777,13</desc></wpt>
<wpt lat="42.6911" lon="-0.3739"><name>HUESCA. Telera (cima)</name><desc>Orientación: _S_SO_SE&#10;Nº vuelos en XContest: 3&#10;Windy:&#10;https://www.windy.com/42.6911/-0.3739/wind?42.6911,-0.3739,13&#10;MeteoParapente:&#10;https://meteo-parapente.com/#/42.6911,-0.3739,13</desc></wpt>
<wpt lat="42.6834" lon="-0.3664"><name>HUESCA. Telera (Covachirizas)</name><desc>Orientación: _NE_SO_N&#10;Nº vuelos en XContest: 0&#10;Windy:&#10;https://www.windy.com/42.6834/-0.3664/wind?42.6834,-0.3664,13&#10;MeteoParapente:&#10;https://meteo-parapente.com/#/42.6834,-0.3664,13</desc></wpt>
<wpt lat="42.2706" lon="-0.4112"><name>HUESCA. Tiacuto</name><desc>Orientación: _S_SO_SE&#10;Nº vuelos en XContest: 211&#10;Windy:&#10;https://www.windy.com/42.2706/-0.4112/wind?42.2706,-0.4112,13&#10;MeteoParapente:&#10;https://meteo-parapente.com/#/42.2706,-0.4112,13</desc></wpt>
<wpt lat="42.13083" lon="-0.33652"><name>HUESCA. Tierz</name><desc>Orientación: _O&#10;Nº vuelos en XContest: 31&#10;Windy:&#10;https://www.windy.com/42.13083/-0.33652/wind?42.13083,-0.33652,13&#10;MeteoParapente:&#10;https://meteo-parapente.com/#/42.13083,-0.33652,13</desc></wpt>
<wpt lat="42.334449" lon="0.605809"><name>HUESCA. Tosal del Sis</name><desc>Orientación: _N_NE_E_SE_S_SO_O_NO&#10;Nº vuelos en XContest: 1&#10;Windy:&#10;https://www.windy.com/42.334449/0.605809/wind?42.334449,0.605809,13&#10;MeteoParapente:&#10;https://meteo-parapente.com/#/42.334449,0.605809,13</desc></wpt>
<wpt lat="42.5330" lon="0.5443"><name>HUESCA. Touch and Go (Castejón de Sos)</name><desc>Orientación: _SE_NO_NE&#10;Nº vuelos en XContest: 291&#10;Windy:&#10;https://www.windy.com/42.5330/0.5443/wind?42.5330,0.5443,13&#10;MeteoParapente:&#10;https://meteo-parapente.com/#/42.5330,0.5443,13</desc></wpt>
<wpt lat="42.2770" lon="-0.1764"><name>HUESCA. Tozal de Cubilars</name><desc>Orientación: _SO_S_SE&#10;Nº vuelos en XContest: 1&#10;Windy:&#10;https://www.windy.com/42.2770/-0.1764/wind?42.2770,-0.1764,13&#10;MeteoParapente:&#10;https://meteo-parapente.com/#/42.2770,-0.1764,13</desc></wpt>
<wpt lat="42.2887" lon="-0.2291"><name>HUESCA. Tozal de Guara</name><desc>Orientación: _SO_S_SE&#10;Nº vuelos en XContest: 4&#10;Windy:&#10;https://www.windy.com/42.2887/-0.2291/wind?42.2887,-0.2291,13&#10;MeteoParapente:&#10;https://meteo-parapente.com/#/42.2887,-0.2291,13</desc></wpt>
<wpt lat="42.6220" lon="0.5011"><name>HUESCA. Tuca del Mon</name><desc>Orientación: _S_SO_O_NO_N&#10;Nº vuelos en XContest: 2&#10;Windy:&#10;https://www.windy.com/42.6220/0.5011/wind?42.6220,0.5011,13&#10;MeteoParapente:&#10;https://meteo-parapente.com/#/42.6220,0.5011,13</desc></wpt>
<wpt lat="42.416" lon="0.494"><name>HUESCA. Turbón</name><desc>Orientación: _S&#10;Nº vuelos en XContest: 17&#10;Windy:&#10;https://www.windy.com/42.416/0.494/wind?42.416,0.494,13&#10;MeteoParapente:&#10;https://meteo-parapente.com/#/42.416,0.494,13</desc></wpt>
<wpt lat="42.7010" lon="-0.2835"><name>HUESCA. Yandel (Panticosa)</name><desc>Orientación: _N_NO_NE_SO_S_O&#10;Nº vuelos en XContest: 184&#10;Windy:&#10;https://www.windy.com/42.7010/-0.2835/wind?42.7010,-0.2835,13&#10;MeteoParapente:&#10;https://meteo-parapente.com/#/42.7010,-0.2835,13</desc></wpt>
<wpt lat="42.6522" lon="-0.3541"><name>HUESCA. Zerruza</name><desc>Orientación: _SE_NNE&#10;Nº vuelos en XContest: 5&#10;Windy:&#10;https://www.windy.com/42.6522/-0.3541/wind?42.6522,-0.3541,13&#10;MeteoParapente:&#10;https://meteo-parapente.com/#/42.6522,-0.3541,13</desc></wpt>
<wpt lat="41.021611" lon="-0.605556"><name>TERUEL. Alto de la Atalaya - Ariño</name><desc>Orientación: _NE_N&#10;Nº vuelos en XContest: 8&#10;Windy:&#10;https://www.windy.com/41.021611/-0.605556/wind?41.021611,-0.605556,13&#10;MeteoParapente:&#10;https://meteo-parapente.com/#/41.021611,-0.605556,13</desc></wpt>
<wpt lat="40.6855" lon="-1.26077"><name>TERUEL. Bueña</name><desc>Orientación: _SO_O&#10;Nº vuelos en XContest: 6&#10;Windy:&#10;https://www.windy.com/40.6855/-1.26077/wind?40.6855,-1.26077,13&#10;MeteoParapente:&#10;https://meteo-parapente.com/#/40.6855,-1.26077,13</desc></wpt>
<wpt lat="40.537203" lon="-0.913898"><name>TERUEL. El Pobo</name><desc>Orientación: _O_NO&#10;Nº vuelos en XContest: 20&#10;Windy:&#10;https://www.windy.com/40.537203/-0.913898/wind?40.537203,-0.913898,13&#10;MeteoParapente:&#10;https://meteo-parapente.com/#/40.537203,-0.913898,13</desc></wpt>
<wpt lat="40.2291" lon="-1.4197"><name>TERUEL. Jabaloyas</name><desc>Orientación: _N_NE&#10;Nº vuelos en XContest: 18&#10;Windy:&#10;https://www.windy.com/40.2291/-1.4197/wind?40.2291,-1.4197,13&#10;MeteoParapente:&#10;https://meteo-parapente.com/#/40.2291,-1.4197,13</desc></wpt>
<wpt lat="40.040" lon="-1.016"><name>TERUEL. Javalambre (Picón del Buitre)</name><desc>Orientación: _SE_S_E&#10;Nº vuelos en XContest: 8&#10;Windy:&#10;https://www.windy.com/40.040/-1.016/wind?40.040,-1.016,13&#10;MeteoParapente:&#10;https://meteo-parapente.com/#/40.040,-1.016,13</desc></wpt>
<wpt lat="41.044875" lon="-0.554861"><name>TERUEL. Plano de la Balsa</name><desc>Orientación: _SSO_SO&#10;Nº vuelos en XContest: 0&#10;Windy:&#10;https://www.windy.com/41.044875/-0.554861/wind?41.044875,-0.554861,13&#10;MeteoParapente:&#10;https://meteo-parapente.com/#/41.044875,-0.554861,13</desc></wpt>
<wpt lat="41.004608" lon="-1.053247"><name>TERUEL. Rudilla</name><desc>Orientación: _N_NE&#10;Nº vuelos en XContest: 8&#10;Windy:&#10;https://www.windy.com/41.004608/-1.053247/wind?41.004608,-1.053247,13&#10;MeteoParapente:&#10;https://meteo-parapente.com/#/41.004608,-1.053247,13</desc></wpt>
<wpt lat="40.7865" lon="-0.8583"><name>TERUEL. Sant Just</name><desc>Orientación: _N_NE_NO&#10;Nº vuelos en XContest: 329&#10;Windy:&#10;https://www.windy.com/40.7865/-0.8583/wind?40.7865,-0.8583,13&#10;MeteoParapente:&#10;https://meteo-parapente.com/#/40.7865,-0.8583,13</desc></wpt>
<wpt lat="40.51845" lon="-0.62897"><name>TERUEL. Villarroya de los Pinares</name><desc>Orientación: _O_ONO&#10;Nº vuelos en XContest: 37&#10;Windy:&#10;https://www.windy.com/40.51845/-0.62897/wind?40.51845,-0.62897,13&#10;MeteoParapente:&#10;https://meteo-parapente.com/#/40.51845,-0.62897,13</desc></wpt>
<wpt lat="42.51176" lon="-1.06095"><name>ZARAGOZA. La Sarda - Isuerre</name><desc>Orientación: _SO_SE_S_O&#10;Nº vuelos en XContest: 17&#10;Windy:&#10;https://www.windy.com/42.51176/-1.06095/wind?42.51176,-1.06095,13&#10;MeteoParapente:&#10;https://meteo-parapente.com/#/42.51176,-1.06095,13</desc></wpt>
<wpt lat="42.394874" lon="-0.933339"><name>ZARAGOZA. Las Lezas</name><desc>Orientación: _S&#10;Nº vuelos en XContest: 3&#10;Windy:&#10;https://www.windy.com/42.394874/-0.933339/wind?42.394874,-0.933339,13&#10;MeteoParapente:&#10;https://meteo-parapente.com/#/42.394874,-0.933339,13</desc></wpt>
<wpt lat="42.13206" lon="-0.92223"><name>ZARAGOZA. Monlora</name><desc>Orientación: _O_NO_SO_S_SE&#10;Nº vuelos en XContest: 496&#10;Windy:&#10;https://www.windy.com/42.13206/-0.92223/wind?42.13206,-0.92223,13&#10;MeteoParapente:&#10;https://meteo-parapente.com/#/42.13206,-0.92223,13</desc></wpt>
<wpt lat="42.4987" lon="-1.286"><name>ZARAGOZA. Monte Peña</name><desc>Orientación: _NO&#10;Nº vuelos en XContest: 17&#10;Windy:&#10;https://www.windy.com/42.4987/-1.286/wind?42.4987,-1.286,13&#10;MeteoParapente:&#10;https://meteo-parapente.com/#/42.4987,-1.286,13</desc></wpt>
<wpt lat="41.4607" lon="-1.6120"><name>ZARAGOZA. Morés</name><desc>Orientación: _NE_E_SE&#10;Nº vuelos en XContest: 4&#10;Windy:&#10;https://www.windy.com/41.4607/-1.6120/wind?41.4607,-1.6120,13&#10;MeteoParapente:&#10;https://meteo-parapente.com/#/41.4607,-1.6120,13</desc></wpt>
<wpt lat="41.36081" lon="-1.481157"><name>ZARAGOZA. Pico del Rayo</name><desc>Orientación: _NO_O_SO_E_SE&#10;Nº vuelos en XContest: 1&#10;Windy:&#10;https://www.windy.com/41.36081/-1.481157/wind?41.36081,-1.481157,13&#10;MeteoParapente:&#10;https://meteo-parapente.com/#/41.36081,-1.481157,13</desc></wpt>
<wpt lat="42.391984" lon="-0.970078"><name>ZARAGOZA. Punta del Siete</name><desc>Orientación: _E&#10;Nº vuelos en XContest: 19&#10;Windy:&#10;https://www.windy.com/42.391984/-0.970078/wind?42.391984,-0.970078,13&#10;MeteoParapente:&#10;https://meteo-parapente.com/#/42.391984,-0.970078,13</desc></wpt>
<wpt lat="42.411508" lon="-0.987491"><name>ZARAGOZA. Puy Moné</name><desc>Orientación: _NO_SO&#10;Nº vuelos en XContest: 8&#10;Windy:&#10;https://www.windy.com/42.411508/-0.987491/wind?42.411508,-0.987491,13&#10;MeteoParapente:&#10;https://meteo-parapente.com/#/42.411508,-0.987491,13</desc></wpt>
<wpt lat="43.5494" lon="-5.6273"><name>ASTURIAS. Aguja</name><desc>Orientación: _N_NO&#10;Nº vuelos en XContest: 40&#10;Windy:&#10;https://www.windy.com/43.5494/-5.6273/wind?43.5494,-5.6273,13&#10;MeteoParapente:&#10;https://meteo-parapente.com/#/43.5494,-5.6273,13</desc></wpt>
<wpt lat="43.54701" lon="-5.47998"><name>ASTURIAS. Argüeru - Argüero</name><desc>Orientación: _NNO&#10;Nº vuelos en XContest: &#10;Windy:&#10;https://www.windy.com/43.54701/-5.47998/wind?43.54701,-5.47998,13&#10;MeteoParapente:&#10;https://meteo-parapente.com/#/43.54701,-5.47998,13</desc></wpt>
<wpt lat="43.3162" lon="-4.9328"><name>ASTURIAS. Avín</name><desc>Orientación: _ONO_O_NO&#10;Nº vuelos en XContest: 7&#10;Windy:&#10;https://www.windy.com/43.3162/-4.9328/wind?43.3162,-4.9328,13&#10;MeteoParapente:&#10;https://meteo-parapente.com/#/43.3162,-4.9328,13</desc></wpt>
<wpt lat="43.40638" lon="-4.97848"><name>ASTURIAS. Benzúa</name><desc>Orientación: _N_NE_NO&#10;Nº vuelos en XContest: 19&#10;Windy:&#10;https://www.windy.com/43.40638/-4.97848/wind?43.40638,-4.97848,13&#10;MeteoParapente:&#10;https://meteo-parapente.com/#/43.40638,-4.97848,13</desc></wpt>
<wpt lat="43.42345788153923" lon="-6.84020385769196"><name>ASTURIAS. Boal</name><desc>Orientación: _NE&#10;Nº vuelos en XContest: 0&#10;Windy:&#10;https://www.windy.com/43.42345788153923/-6.84020385769196/wind?43.42345788153923,-6.84020385769196,13&#10;MeteoParapente:&#10;https://meteo-parapente.com/#/43.42345788153923,-6.84020385769196,13</desc></wpt>
<wpt lat="43.52445" lon="-6.36078"><name>ASTURIAS. Busmarzo 1</name><desc>Orientación: _N&#10;Nº vuelos en XContest: 0&#10;Windy:&#10;https://www.windy.com/43.52445/-6.36078/wind?43.52445,-6.36078,13&#10;MeteoParapente:&#10;https://meteo-parapente.com/#/43.52445,-6.36078,13</desc></wpt>
<wpt lat="43.53689" lon="-6.35179"><name>ASTURIAS. Busmarzo 2</name><desc>Orientación: _N&#10;Nº vuelos en XContest: 0&#10;Windy:&#10;https://www.windy.com/43.53689/-6.35179/wind?43.53689,-6.35179,13&#10;MeteoParapente:&#10;https://meteo-parapente.com/#/43.53689,-6.35179,13</desc></wpt>
<wpt lat="43.65610" lon="-5.84554"><name>ASTURIAS. Cabo Peñas este</name><desc>Orientación: _E&#10;Nº vuelos en XContest: &#10;Windy:&#10;https://www.windy.com/43.65610/-5.84554/wind?43.65610,-5.84554,13&#10;MeteoParapente:&#10;https://meteo-parapente.com/#/43.65610,-5.84554,13</desc></wpt>
<wpt lat="43.6397" lon="-5.8553"><name>ASTURIAS. Cabo Peñas oeste - Ferriru - Ferrero</name><desc>Orientación: _O&#10;Nº vuelos en XContest: 7&#10;Windy:&#10;https://www.windy.com/43.6397/-5.8553/wind?43.6397,-5.8553,13&#10;MeteoParapente:&#10;https://meteo-parapente.com/#/43.6397,-5.8553,13</desc></wpt>
<wpt lat="43.5837" lon="-6.2432"><name>ASTURIAS. Cabo Vidio</name><desc>Orientación: _NO&#10;Nº vuelos en XContest: 3&#10;Windy:&#10;https://www.windy.com/43.5837/-6.2432/wind?43.5837,-6.2432,13&#10;MeteoParapente:&#10;https://meteo-parapente.com/#/43.5837,-6.2432,13</desc></wpt>
<wpt lat="43.18990" lon="-6.56900"><name>ASTURIAS. Cangas del Narcea</name><desc>Orientación: _E_NE_SE&#10;Nº vuelos en XContest: &#10;Windy:&#10;https://www.windy.com/43.18990/-6.56900/wind?43.18990,-6.56900,13&#10;MeteoParapente:&#10;https://meteo-parapente.com/#/43.18990,-6.56900,13</desc></wpt>
<wpt lat="43.4549" lon="-6.5996"><name>ASTURIAS. Capiella Martín</name><desc>Orientación: _NO&#10;Nº vuelos en XContest: 2&#10;Windy:&#10;https://www.windy.com/43.4549/-6.5996/wind?43.4549,-6.5996,13&#10;MeteoParapente:&#10;https://meteo-parapente.com/#/43.4549,-6.5996,13</desc></wpt>
<wpt lat="43.32853" lon="-5.46547"><name>ASTURIAS. Casielles</name><desc>Orientación: _NO_N&#10;Nº vuelos en XContest: 51&#10;Windy:&#10;https://www.windy.com/43.32853/-5.46547/wind?43.32853,-5.46547,13&#10;MeteoParapente:&#10;https://meteo-parapente.com/#/43.32853,-5.46547,13</desc></wpt>
<wpt lat="43.385" lon="-4.755"><name>ASTURIAS. Castiello</name><desc>Orientación: _NO_N_NE&#10;Nº vuelos en XContest: 4&#10;Windy:&#10;https://www.windy.com/43.385/-4.755/wind?43.385,-4.755,13&#10;MeteoParapente:&#10;https://meteo-parapente.com/#/43.385,-4.755,13</desc></wpt>
<wpt lat="43.5502" lon="-5.6126"><name>ASTURIAS. Colina del Cuervo</name><desc>Orientación: _NE_E_NNE&#10;Nº vuelos en XContest: 400&#10;Windy:&#10;https://www.windy.com/43.5502/-5.6126/wind?43.5502,-5.6126,13&#10;MeteoParapente:&#10;https://meteo-parapente.com/#/43.5502,-5.6126,13</desc></wpt>
<wpt lat="43.10982" lon="-5.55552"><name>ASTURIAS. Collanzo</name><desc>Orientación: _ONO_NO&#10;Nº vuelos en XContest: 2&#10;Windy:&#10;https://www.windy.com/43.10982/-5.55552/wind?43.10982,-5.55552,13&#10;MeteoParapente:&#10;https://meteo-parapente.com/#/43.10982,-5.55552,13</desc></wpt>
<wpt lat="43.1338" lon="-5.6430"><name>ASTURIAS. Cotobello (Coto Bello)</name><desc>Orientación: _N_NO_O&#10;Nº vuelos en XContest: 165&#10;Windy:&#10;https://www.windy.com/43.1338/-5.6430/wind?43.1338,-5.6430,13&#10;MeteoParapente:&#10;https://meteo-parapente.com/#/43.1338,-5.6430,13</desc></wpt>
<wpt lat="43.3416" lon="-6.2355"><name>ASTURIAS. Courio</name><desc>Orientación: _E_SE&#10;Nº vuelos en XContest: 2&#10;Windy:&#10;https://www.windy.com/43.3416/-6.2355/wind?43.3416,-6.2355,13&#10;MeteoParapente:&#10;https://meteo-parapente.com/#/43.3416,-6.2355,13</desc></wpt>
<wpt lat="43.2727" lon="-6.0267"><name>ASTURIAS. Cruz de Linares</name><desc>Orientación: _E_NE_SE_S_N&#10;Nº vuelos en XContest: 6&#10;Windy:&#10;https://www.windy.com/43.2727/-6.0267/wind?43.2727,-6.0267,13&#10;MeteoParapente:&#10;https://meteo-parapente.com/#/43.2727,-6.0267,13</desc></wpt>
<wpt lat="43.4920" lon="-5.6063"><name>ASTURIAS. Deva</name><desc>Orientación: _N_NNO&#10;Nº vuelos en XContest: 10&#10;Windy:&#10;https://www.windy.com/43.4920/-5.6063/wind?43.4920,-5.6063,13&#10;MeteoParapente:&#10;https://meteo-parapente.com/#/43.4920,-5.6063,13</desc></wpt>
<wpt lat="43.4190" lon="-5.2761"><name>ASTURIAS. Espineres - Maladín</name><desc>Orientación: _ONO_O_NO&#10;Nº vuelos en XContest: 9&#10;Windy:&#10;https://www.windy.com/43.4190/-5.2761/wind?43.4190,-5.2761,13&#10;MeteoParapente:&#10;https://meteo-parapente.com/#/43.4190,-5.2761,13</desc></wpt>
<wpt lat="43.08740" lon="-6.56271"><name>ASTURIAS. Folgueraxú (Folgueraju)</name><desc>Orientación: _SE&#10;Nº vuelos en XContest: &#10;Windy:&#10;https://www.windy.com/43.08740/-6.56271/wind?43.08740,-6.56271,13&#10;MeteoParapente:&#10;https://meteo-parapente.com/#/43.08740,-6.56271,13</desc></wpt>
<wpt lat="43.22615" lon="-5.933783"><name>ASTURIAS. Gamonal - Angliru</name><desc>Orientación: _E_NE&#10;Nº vuelos en XContest: 21&#10;Windy:&#10;https://www.windy.com/43.22615/-5.933783/wind?43.22615,-5.933783,13&#10;MeteoParapente:&#10;https://meteo-parapente.com/#/43.22615,-5.933783,13</desc></wpt>
<wpt lat="43.187223" lon="-5.924663"><name>ASTURIAS. Gamoniteiro</name><desc>Orientación: _SO_OSO&#10;Nº vuelos en XContest: 151&#10;Windy:&#10;https://www.windy.com/43.187223/-5.924663/wind?43.187223,-5.924663,13&#10;MeteoParapente:&#10;https://meteo-parapente.com/#/43.187223,-5.924663,13</desc></wpt>
<wpt lat="43.50292" lon="-5.26537"><name>ASTURIAS. La Griega - Lastres</name><desc>Orientación: _NNE_NE_N&#10;Nº vuelos en XContest: &#10;Windy:&#10;https://www.windy.com/43.50292/-5.26537/wind?43.50292,-5.26537,13&#10;MeteoParapente:&#10;https://meteo-parapente.com/#/43.50292,-5.26537,13</desc></wpt>
<wpt lat="43.5537" lon="-5.6191"><name>ASTURIAS. La Providencia - Parque del Cabo San Lorenzo</name><desc>Orientación: _NO&#10;Nº vuelos en XContest: 88&#10;Windy:&#10;https://www.windy.com/43.5537/-5.6191/wind?43.5537,-5.6191,13&#10;MeteoParapente:&#10;https://meteo-parapente.com/#/43.5537,-5.6191,13</desc></wpt>
<wpt lat="43.50968" lon="-5.27128"><name>ASTURIAS. Lastres</name><desc>Orientación: _SE_E&#10;Nº vuelos en XContest: 2&#10;Windy:&#10;https://www.windy.com/43.50968/-5.27128/wind?43.50968,-5.27128,13&#10;MeteoParapente:&#10;https://meteo-parapente.com/#/43.50968,-5.27128,13</desc></wpt>
<wpt lat="43.38168" lon="-4.81834"><name>ASTURIAS. Los Corros - La Tornería</name><desc>Orientación: _N_NO&#10;Nº vuelos en XContest: 70&#10;Windy:&#10;https://www.windy.com/43.38168/-4.81834/wind?43.38168,-4.81834,13&#10;MeteoParapente:&#10;https://meteo-parapente.com/#/43.38168,-4.81834,13</desc></wpt>
<wpt lat="43.319325" lon="-5.112718"><name>ASTURIAS. Mirador de Següencu</name><desc>Orientación: _N_NE_ENE&#10;Nº vuelos en XContest: 6&#10;Windy:&#10;https://www.windy.com/43.319325/-5.112718/wind?43.319325,-5.112718,13&#10;MeteoParapente:&#10;https://meteo-parapente.com/#/43.319325,-5.112718,13</desc></wpt>
<wpt lat="43.07475" lon="-5.42977"><name>ASTURIAS. Mirador de Zuvillaga</name><desc>Orientación: _NO_O_N&#10;Nº vuelos en XContest: 9&#10;Windy:&#10;https://www.windy.com/43.07475/-5.42977/wind?43.07475,-5.42977,13&#10;MeteoParapente:&#10;https://meteo-parapente.com/#/43.07475,-5.42977,13</desc></wpt>
<wpt lat="43.4393" lon="-5.1964"><name>ASTURIAS. Mirador del Fito</name><desc>Orientación: _NO_N&#10;Nº vuelos en XContest: 19&#10;Windy:&#10;https://www.windy.com/43.4393/-5.1964/wind?43.4393,-5.1964,13&#10;MeteoParapente:&#10;https://meteo-parapente.com/#/43.4393,-5.1964,13</desc></wpt>
<wpt lat="43.6090" lon="-5.9115"><name>ASTURIAS. Monteril - Xagó</name><desc>Orientación: _O_SO&#10;Nº vuelos en XContest: 34&#10;Windy:&#10;https://www.windy.com/43.6090/-5.9115/wind?43.6090,-5.9115,13&#10;MeteoParapente:&#10;https://meteo-parapente.com/#/43.6090,-5.9115,13</desc></wpt>
<wpt lat="43.256482" lon="-5.944645"><name>ASTURIAS. Mostayal</name><desc>Orientación: _E_SE&#10;Nº vuelos en XContest: 259&#10;Windy:&#10;https://www.windy.com/43.256482/-5.944645/wind?43.256482,-5.944645,13&#10;MeteoParapente:&#10;https://meteo-parapente.com/#/43.256482,-5.944645,13</desc></wpt>
<wpt lat="43.3844" lon="-5.8641"><name>ASTURIAS. Naranco</name><desc>Orientación: _S&#10;Nº vuelos en XContest: 37&#10;Windy:&#10;https://www.windy.com/43.3844/-5.8641/wind?43.3844,-5.8641,13&#10;MeteoParapente:&#10;https://meteo-parapente.com/#/43.3844,-5.8641,13</desc></wpt>
<wpt lat="43.324465" lon="-5.497053"><name>ASTURIAS. Nava - Piloñeta</name><desc>Orientación: _N&#10;Nº vuelos en XContest: 140&#10;Windy:&#10;https://www.windy.com/43.324465/-5.497053/wind?43.324465,-5.497053,13&#10;MeteoParapente:&#10;https://meteo-parapente.com/#/43.324465,-5.497053,13</desc></wpt>
<wpt lat="42.96811" lon="-5.79023"><name>ASTURIAS. Pajares</name><desc>Orientación: _NO&#10;Nº vuelos en XContest: 36&#10;Windy:&#10;https://www.windy.com/42.96811/-5.79023/wind?42.96811,-5.79023,13&#10;MeteoParapente:&#10;https://meteo-parapente.com/#/42.96811,-5.79023,13</desc></wpt>
<wpt lat="43.34558" lon="-6.15252"><name>ASTURIAS. Pedroreo (Pedroiru)</name><desc>Orientación: _NO_NNO&#10;Nº vuelos en XContest: 5&#10;Windy:&#10;https://www.windy.com/43.34558/-6.15252/wind?43.34558,-6.15252,13&#10;MeteoParapente:&#10;https://meteo-parapente.com/#/43.34558,-6.15252,13</desc></wpt>
<wpt lat="43.48014" lon="-5.49836"><name>ASTURIAS. Pedroso</name><desc>Orientación: _SE&#10;Nº vuelos en XContest: &#10;Windy:&#10;https://www.windy.com/43.48014/-5.49836/wind?43.48014,-5.49836,13&#10;MeteoParapente:&#10;https://meteo-parapente.com/#/43.48014,-5.49836,13</desc></wpt>
<wpt lat="43.26958" lon="-5.50185"><name>ASTURIAS. Peña Mayor I</name><desc>Orientación: _SO_S&#10;Nº vuelos en XContest: 49&#10;Windy:&#10;https://www.windy.com/43.26958/-5.50185/wind?43.26958,-5.50185,13&#10;MeteoParapente:&#10;https://meteo-parapente.com/#/43.26958,-5.50185,13</desc></wpt>
<wpt lat="43.281528" lon="-5.503583"><name>ASTURIAS. Peña Mayor II</name><desc>Orientación: _O_SO&#10;Nº vuelos en XContest: 37&#10;Windy:&#10;https://www.windy.com/43.281528/-5.503583/wind?43.281528,-5.503583,13&#10;MeteoParapente:&#10;https://meteo-parapente.com/#/43.281528,-5.503583,13</desc></wpt>
<wpt lat="43.158033" lon="-6.057583"><name>ASTURIAS. Peña Sobia</name><desc>Orientación: _O_SO&#10;Nº vuelos en XContest: 25&#10;Windy:&#10;https://www.windy.com/43.158033/-6.057583/wind?43.158033,-6.057583,13&#10;MeteoParapente:&#10;https://meteo-parapente.com/#/43.158033,-6.057583,13</desc></wpt>
<wpt lat="43.1667" lon="-5.9057"><name>ASTURIAS. Peral</name><desc>Orientación: _S_SE&#10;Nº vuelos en XContest: 11&#10;Windy:&#10;https://www.windy.com/43.1667/-5.9057/wind?43.1667,-5.9057,13&#10;MeteoParapente:&#10;https://meteo-parapente.com/#/43.1667,-5.9057,13</desc></wpt>
<wpt lat="43.32037" lon="-5.33635"><name>ASTURIAS. Pico Coroña</name><desc>Orientación: _NO_SE&#10;Nº vuelos en XContest: 2&#10;Windy:&#10;https://www.windy.com/43.32037/-5.33635/wind?43.32037,-5.33635,13&#10;MeteoParapente:&#10;https://meteo-parapente.com/#/43.32037,-5.33635,13</desc></wpt>
<wpt lat="43.472" lon="-5.660"><name>ASTURIAS. Pico del Sol</name><desc>Orientación: _NO_N_NE&#10;Nº vuelos en XContest: 641&#10;Windy:&#10;https://www.windy.com/43.472/-5.660/wind?43.472,-5.660,13&#10;MeteoParapente:&#10;https://meteo-parapente.com/#/43.472,-5.660,13</desc></wpt>
<wpt lat="43.52683" lon="-6.78442"><name>ASTURIAS. Pico Jarrio</name><desc>Orientación: _N_NO&#10;Nº vuelos en XContest: 1&#10;Windy:&#10;https://www.windy.com/43.52683/-6.78442/wind?43.52683,-6.78442,13&#10;MeteoParapente:&#10;https://meteo-parapente.com/#/43.52683,-6.78442,13</desc></wpt>
<wpt lat="43.076538" lon="-5.413053"><name>ASTURIAS. Pico Torres</name><desc>Orientación: _O&#10;Nº vuelos en XContest: 3&#10;Windy:&#10;https://www.windy.com/43.076538/-5.413053/wind?43.076538,-5.413053,13&#10;MeteoParapente:&#10;https://meteo-parapente.com/#/43.076538,-5.413053,13</desc></wpt>
<wpt lat="43.065463" lon="-5.480477"><name>ASTURIAS. Picón de las Rubias</name><desc>Orientación: _E_SE&#10;Nº vuelos en XContest: 1&#10;Windy:&#10;https://www.windy.com/43.065463/-5.480477/wind?43.065463,-5.480477,13&#10;MeteoParapente:&#10;https://meteo-parapente.com/#/43.065463,-5.480477,13</desc></wpt>
<wpt lat="43.366502" lon="-5.118607"><name>ASTURIAS. Picu Arbolin</name><desc>Orientación: _S_SE&#10;Nº vuelos en XContest: 8&#10;Windy:&#10;https://www.windy.com/43.366502/-5.118607/wind?43.366502,-5.118607,13&#10;MeteoParapente:&#10;https://meteo-parapente.com/#/43.366502,-5.118607,13</desc></wpt>
<wpt lat="43.4312" lon="-5.2425"><name>ASTURIAS. Picu Pienzu</name><desc>Orientación: _S_SSE_SE&#10;Nº vuelos en XContest: 32&#10;Windy:&#10;https://www.windy.com/43.4312/-5.2425/wind?43.4312,-5.2425,13&#10;MeteoParapente:&#10;https://meteo-parapente.com/#/43.4312,-5.2425,13</desc></wpt>
<wpt lat="43.39301" lon="-4.55376"><name>ASTURIAS. Pimiango</name><desc>Orientación: _N_NO&#10;Nº vuelos en XContest: &#10;Windy:&#10;https://www.windy.com/43.39301/-4.55376/wind?43.39301,-4.55376,13&#10;MeteoParapente:&#10;https://meteo-parapente.com/#/43.39301,-4.55376,13</desc></wpt>
<wpt lat="43.39707" lon="-4.83075"><name>ASTURIAS. Resquilones</name><desc>Orientación: _N_NE&#10;Nº vuelos en XContest: 24&#10;Windy:&#10;https://www.windy.com/43.39707/-4.83075/wind?43.39707,-4.83075,13&#10;MeteoParapente:&#10;https://meteo-parapente.com/#/43.39707,-4.83075,13</desc></wpt>
<wpt lat="43.4426" lon="-4.8617"><name>ASTURIAS. San Antolín</name><desc>Orientación: _NO_N&#10;Nº vuelos en XContest: 18&#10;Windy:&#10;https://www.windy.com/43.4426/-4.8617/wind?43.4426,-4.8617,13&#10;MeteoParapente:&#10;https://meteo-parapente.com/#/43.4426,-4.8617,13</desc></wpt>
<wpt lat="43.4213" lon="-5.5737"><name>ASTURIAS. Sariego</name><desc>Orientación: _SE_SO&#10;Nº vuelos en XContest: 12&#10;Windy:&#10;https://www.windy.com/43.4213/-5.5737/wind?43.4213,-5.5737,13&#10;MeteoParapente:&#10;https://meteo-parapente.com/#/43.4213,-5.5737,13</desc></wpt>
<wpt lat="43.324933" lon="-5.9593"><name>ASTURIAS. Siones</name><desc>Orientación: _NE&#10;Nº vuelos en XContest: 310&#10;Windy:&#10;https://www.windy.com/43.324933/-5.9593/wind?43.324933,-5.9593,13&#10;MeteoParapente:&#10;https://meteo-parapente.com/#/43.324933,-5.9593,13</desc></wpt>
<wpt lat="43.4404" lon="-4.8495"><name>ASTURIAS. Torimbia</name><desc>Orientación: _NO&#10;Nº vuelos en XContest: 131&#10;Windy:&#10;https://www.windy.com/43.4404/-4.8495/wind?43.4404,-4.8495,13&#10;MeteoParapente:&#10;https://meteo-parapente.com/#/43.4404,-4.8495,13</desc></wpt>
<wpt lat="43.07805" lon="-6.00145"><name>ASTURIAS. Trobaniello</name><desc>Orientación: _E_N_NE&#10;Nº vuelos en XContest: 1&#10;Windy:&#10;https://www.windy.com/43.07805/-6.00145/wind?43.07805,-6.00145,13&#10;MeteoParapente:&#10;https://meteo-parapente.com/#/43.07805,-6.00145,13</desc></wpt>
<wpt lat="43.0408" lon="-5.9209"><name>ASTURIAS. Tuiza (Peña Chana)</name><desc>Orientación: _SO&#10;Nº vuelos en XContest: 9&#10;Windy:&#10;https://www.windy.com/43.0408/-5.9209/wind?43.0408,-5.9209,13&#10;MeteoParapente:&#10;https://meteo-parapente.com/#/43.0408,-5.9209,13</desc></wpt>
<wpt lat="43.4409" lon="-5.5213"><name>ASTURIAS. Valdedios</name><desc>Orientación: _E_NE&#10;Nº vuelos en XContest: 9&#10;Windy:&#10;https://www.windy.com/43.4409/-5.5213/wind?43.4409,-5.5213,13&#10;MeteoParapente:&#10;https://meteo-parapente.com/#/43.4409,-5.5213,13</desc></wpt>
<wpt lat="43.62235" lon="-5.88318"><name>ASTURIAS. Verdicio</name><desc>Orientación: _N_NO_NE&#10;Nº vuelos en XContest: &#10;Windy:&#10;https://www.windy.com/43.62235/-5.88318/wind?43.62235,-5.88318,13&#10;MeteoParapente:&#10;https://meteo-parapente.com/#/43.62235,-5.88318,13</desc></wpt>
<wpt lat="43.35500" lon="-4.55745"><name>ASTURIAS. Villanueva (Ribadedeva)</name><desc>Orientación: _N_NNE&#10;Nº vuelos en XContest: &#10;Windy:&#10;https://www.windy.com/43.35500/-4.55745/wind?43.35500,-4.55745,13&#10;MeteoParapente:&#10;https://meteo-parapente.com/#/43.35500,-4.55745,13</desc></wpt>
<wpt lat="43.5217" lon="-6.6378"><name>ASTURIAS. Villapedre</name><desc>Orientación: _NO&#10;Nº vuelos en XContest: 25&#10;Windy:&#10;https://www.windy.com/43.5217/-6.6378/wind?43.5217,-6.6378,13&#10;MeteoParapente:&#10;https://meteo-parapente.com/#/43.5217,-6.6378,13</desc></wpt>
<wpt lat="43.15981" lon="-6.49936"><name>ASTURIAS. Virgen del Acebo (Acebu)</name><desc>Orientación: _NO_O_N&#10;Nº vuelos en XContest: &#10;Windy:&#10;https://www.windy.com/43.15981/-6.49936/wind?43.15981,-6.49936,13&#10;MeteoParapente:&#10;https://meteo-parapente.com/#/43.15981,-6.49936,13</desc></wpt>
<wpt lat="39.8352" lon="3.0963"><name>BALEARES. Alcúdia (Puig de Sant Martí)</name><desc>Orientación: _E_NE&#10;Nº vuelos en XContest: 1589&#10;Windy:&#10;https://www.windy.com/39.8352/3.0963/wind?39.8352,3.0963,13&#10;MeteoParapente:&#10;https://meteo-parapente.com/#/39.8352,3.0963,13</desc></wpt>
<wpt lat="40.0512" lon="4.0595"><name>BALEARES. Benimel</name><desc>Orientación: _O&#10;Nº vuelos en XContest: 1&#10;Windy:&#10;https://www.windy.com/40.0512/4.0595/wind?40.0512,4.0595,13&#10;MeteoParapente:&#10;https://meteo-parapente.com/#/40.0512,4.0595,13</desc></wpt>
<wpt lat="39.739" lon="3.3095"><name>BALEARES. Betlem</name><desc>Orientación: _N_NO&#10;Nº vuelos en XContest: 64&#10;Windy:&#10;https://www.windy.com/39.739/3.3095/wind?39.739,3.3095,13&#10;MeteoParapente:&#10;https://meteo-parapente.com/#/39.739,3.3095,13</desc></wpt>
<wpt lat="40.0478" lon="4.0915"><name>BALEARES. Binidonaire</name><desc>Orientación: _O&#10;Nº vuelos en XContest: 2&#10;Windy:&#10;https://www.windy.com/40.0478/4.0915/wind?40.0478,4.0915,13&#10;MeteoParapente:&#10;https://meteo-parapente.com/#/40.0478,4.0915,13</desc></wpt>
<wpt lat="39.9203" lon="4.0265"><name>BALEARES. Binigauss</name><desc>Orientación: _SO&#10;Nº vuelos en XContest: 16&#10;Windy:&#10;https://www.windy.com/39.9203/4.0265/wind?39.9203,4.0265,13&#10;MeteoParapente:&#10;https://meteo-parapente.com/#/39.9203,4.0265,13</desc></wpt>
<wpt lat="39.6968" lon="2.7136"><name>BALEARES. Bunyola</name><desc>Orientación: _S_SO&#10;Nº vuelos en XContest: 246&#10;Windy:&#10;https://www.windy.com/39.6968/2.7136/wind?39.6968,2.7136,13&#10;MeteoParapente:&#10;https://meteo-parapente.com/#/39.6968,2.7136,13</desc></wpt>
<wpt lat="39.4447" lon="2.7482"><name>BALEARES. Cabo Blanco (Capo Blanco)</name><desc>Orientación: _SO_O&#10;Nº vuelos en XContest: 423&#10;Windy:&#10;https://www.windy.com/39.4447/2.7482/wind?39.4447,2.7482,13&#10;MeteoParapente:&#10;https://meteo-parapente.com/#/39.4447,2.7482,13</desc></wpt>
<wpt lat="39.7384" lon="3.4513"><name>BALEARES. Cala Mesquida</name><desc>Orientación: _NO&#10;Nº vuelos en XContest: 27&#10;Windy:&#10;https://www.windy.com/39.7384/3.4513/wind?39.7384,3.4513,13&#10;MeteoParapente:&#10;https://meteo-parapente.com/#/39.7384,3.4513,13</desc></wpt>
<wpt lat="40.0463" lon="4.1005"><name>BALEARES. Cala Tirant</name><desc>Orientación: _E&#10;Nº vuelos en XContest: 2&#10;Windy:&#10;https://www.windy.com/40.0463/4.1005/wind?40.0463,4.1005,13&#10;MeteoParapente:&#10;https://meteo-parapente.com/#/40.0463,4.1005,13</desc></wpt>
<wpt lat="40.0583" lon="4.074499"><name>BALEARES. Cavalleria</name><desc>Orientación: _N_NO&#10;Nº vuelos en XContest: 20&#10;Windy:&#10;https://www.windy.com/40.0583/4.074499/wind?40.0583,4.074499,13&#10;MeteoParapente:&#10;https://meteo-parapente.com/#/40.0583,4.074499,13</desc></wpt>
<wpt lat="39.9853" lon="4.1135"><name>BALEARES. Monte Toro</name><desc>Orientación: _N_E_S_NO_SE&#10;Nº vuelos en XContest: 1450&#10;Windy:&#10;https://www.windy.com/39.9853/4.1135/wind?39.9853,4.1135,13&#10;MeteoParapente:&#10;https://meteo-parapente.com/#/39.9853,4.1135,13</desc></wpt>
<wpt lat="39.7845" lon="2.7693"><name>BALEARES. Penyal Xepat - Puig Major</name><desc>Orientación: _N_NO&#10;Nº vuelos en XContest: 10&#10;Windy:&#10;https://www.windy.com/39.7845/2.7693/wind?39.7845,2.7693,13&#10;MeteoParapente:&#10;https://meteo-parapente.com/#/39.7845,2.7693,13</desc></wpt>
<wpt lat="39.4544" lon="3.1886"><name>BALEARES. Puig de Sant Salvador</name><desc>Orientación: _E&#10;Nº vuelos en XContest: 56&#10;Windy:&#10;https://www.windy.com/39.4544/3.1886/wind?39.4544,3.1886,13&#10;MeteoParapente:&#10;https://meteo-parapente.com/#/39.4544,3.1886,13</desc></wpt>
<wpt lat="39.7211" lon="2.9569"><name>BALEARES. Puig de Santa Magdalena</name><desc>Orientación: _SO&#10;Nº vuelos en XContest: 22&#10;Windy:&#10;https://www.windy.com/39.7211/2.9569/wind?39.7211,2.9569,13&#10;MeteoParapente:&#10;https://meteo-parapente.com/#/39.7211,2.9569,13</desc></wpt>
<wpt lat="38.8875" lon="1.257"><name>BALEARES. Puig d'en Serra</name><desc>Orientación: _SE&#10;Nº vuelos en XContest: 0&#10;Windy:&#10;https://www.windy.com/38.8875/1.257/wind?38.8875,1.257,13&#10;MeteoParapente:&#10;https://meteo-parapente.com/#/38.8875,1.257,13</desc></wpt>
<wpt lat="39.906" lon="4.2934"><name>BALEARES. Sa Mesquida</name><desc>Orientación: _E&#10;Nº vuelos en XContest: 9&#10;Windy:&#10;https://www.windy.com/39.906/4.2934/wind?39.906,4.2934,13&#10;MeteoParapente:&#10;https://meteo-parapente.com/#/39.906,4.2934,13</desc></wpt>
<wpt lat="39.7972" lon="2.9472"><name>BALEARES. Sa Plana Bisquerra</name><desc>Orientación: _S&#10;Nº vuelos en XContest: 0&#10;Windy:&#10;https://www.windy.com/39.7972/2.9472/wind?39.7972,2.9472,13&#10;MeteoParapente:&#10;https://meteo-parapente.com/#/39.7972,2.9472,13</desc></wpt>
<wpt lat="39.9974" lon="4.0045"><name>BALEARES. S'Enclusa</name><desc>Orientación: _SO&#10;Nº vuelos en XContest: 97&#10;Windy:&#10;https://www.windy.com/39.9974/4.0045/wind?39.9974,4.0045,13&#10;MeteoParapente:&#10;https://meteo-parapente.com/#/39.9974,4.0045,13</desc></wpt>
<wpt lat="39.7332" lon="2.7115"><name>BALEARES. Serra Alfabia</name><desc>Orientación: _SO&#10;Nº vuelos en XContest: 8&#10;Windy:&#10;https://www.windy.com/39.7332/2.7115/wind?39.7332,2.7115,13&#10;MeteoParapente:&#10;https://meteo-parapente.com/#/39.7332,2.7115,13</desc></wpt>
<wpt lat="39.8952" lon="4.0812"><name>BALEARES. Son Bou</name><desc>Orientación: _O&#10;Nº vuelos en XContest: 259&#10;Windy:&#10;https://www.windy.com/39.8952/4.0812/wind?39.8952,4.0812,13&#10;MeteoParapente:&#10;https://meteo-parapente.com/#/39.8952,4.0812,13</desc></wpt>
<wpt lat="40.0249" lon="4.1711"><name>BALEARES. Son Parc</name><desc>Orientación: _NE&#10;Nº vuelos en XContest: 3&#10;Windy:&#10;https://www.windy.com/40.0249/4.1711/wind?40.0249,4.1711,13&#10;MeteoParapente:&#10;https://meteo-parapente.com/#/40.0249,4.1711,13</desc></wpt>
<wpt lat="39.997" lon="4.0378"><name>BALEARES. Terra Rotja</name><desc>Orientación: _S_SO&#10;Nº vuelos en XContest: 0&#10;Windy:&#10;https://www.windy.com/39.997/4.0378/wind?39.997,4.0378,13&#10;MeteoParapente:&#10;https://meteo-parapente.com/#/39.997,4.0378,13</desc></wpt>
<wpt lat="27.962051" lon="-15.529785"><name>LAS PALMAS. Caldera de los Marteles</name><desc>Orientación: _N_NE_E&#10;Nº vuelos en XContest: 1&#10;Windy:&#10;https://www.windy.com/27.962051/-15.529785/wind?27.962051,-15.529785,13&#10;MeteoParapente:&#10;https://meteo-parapente.com/#/27.962051,-15.529785,13</desc></wpt>
<wpt lat="29.0888" lon="-13.6591"><name>LAS PALMAS. El Cuchillo</name><desc>Orientación: _N_NE&#10;Nº vuelos en XContest: 232&#10;Windy:&#10;https://www.windy.com/29.0888/-13.6591/wind?29.0888,-13.6591,13&#10;MeteoParapente:&#10;https://meteo-parapente.com/#/29.0888,-13.6591,13</desc></wpt>
<wpt lat="28.1251" lon="-14.2652"><name>LAS PALMAS. El Paso</name><desc>Orientación: _SO&#10;Nº vuelos en XContest: 7&#10;Windy:&#10;https://www.windy.com/28.1251/-14.2652/wind?28.1251,-14.2652,13&#10;MeteoParapente:&#10;https://meteo-parapente.com/#/28.1251,-14.2652,13</desc></wpt>
<wpt lat="29.0802" lon="-13.5579"><name>LAS PALMAS. Famara (Chimidas)</name><desc>Orientación: _N_NO_O&#10;Nº vuelos en XContest: 317&#10;Windy:&#10;https://www.windy.com/29.0802/-13.5579/wind?29.0802,-13.5579,13&#10;MeteoParapente:&#10;https://meteo-parapente.com/#/29.0802,-13.5579,13</desc></wpt>
<wpt lat="28.9145" lon="-13.7833"><name>LAS PALMAS. Femes</name><desc>Orientación: _SO&#10;Nº vuelos en XContest: 6&#10;Windy:&#10;https://www.windy.com/28.9145/-13.7833/wind?28.9145,-13.7833,13&#10;MeteoParapente:&#10;https://meteo-parapente.com/#/28.9145,-13.7833,13</desc></wpt>
<wpt lat="28.166606" lon="-15.435897"><name>LAS PALMAS. Las Coloradas</name><desc>Orientación: _NE_N_NO&#10;Nº vuelos en XContest: 22&#10;Windy:&#10;https://www.windy.com/28.166606/-15.435897/wind?28.166606,-15.435897,13&#10;MeteoParapente:&#10;https://meteo-parapente.com/#/28.166606,-15.435897,13</desc></wpt>
<wpt lat="28.127294" lon="-15.475822"><name>LAS PALMAS. Los Giles</name><desc>Orientación: _N_NE_NO_E&#10;Nº vuelos en XContest: 382&#10;Windy:&#10;https://www.windy.com/28.127294/-15.475822/wind?28.127294,-15.475822,13&#10;MeteoParapente:&#10;https://meteo-parapente.com/#/28.127294,-15.475822,13</desc></wpt>
<wpt lat="28.9532" lon="-13.712"><name>LAS PALMAS. Macher (La Asomada)</name><desc>Orientación: _SE&#10;Nº vuelos en XContest: 729&#10;Windy:&#10;https://www.windy.com/28.9532/-13.712/wind?28.9532,-13.712,13&#10;MeteoParapente:&#10;https://meteo-parapente.com/#/28.9532,-13.712,13</desc></wpt>
<wpt lat="29.1106" lon="-13.4775"><name>LAS PALMAS. Mala Arrieta</name><desc>Orientación: _N_NE_E_SE&#10;Nº vuelos en XContest: 1202&#10;Windy:&#10;https://www.windy.com/29.1106/-13.4775/wind?29.1106,-13.4775,13&#10;MeteoParapente:&#10;https://meteo-parapente.com/#/29.1106,-13.4775,13</desc></wpt>
<wpt lat="29.2199" lon="-13.4724"><name>LAS PALMAS. Mirador del Rio</name><desc>Orientación: _NE_N_NO&#10;Nº vuelos en XContest: 725&#10;Windy:&#10;https://www.windy.com/29.2199/-13.4724/wind?29.2199,-13.4724,13&#10;MeteoParapente:&#10;https://meteo-parapente.com/#/29.2199,-13.4724,13</desc></wpt>
<wpt lat="28.5859" lon="-13.9082"><name>LAS PALMAS. Mirador Valebron</name><desc>Orientación: _N_O&#10;Nº vuelos en XContest: 0&#10;Windy:&#10;https://www.windy.com/28.5859/-13.9082/wind?28.5859,-13.9082,13&#10;MeteoParapente:&#10;https://meteo-parapente.com/#/28.5859,-13.9082,13</desc></wpt>
<wpt lat="29.2242" lon="-13.4633"><name>LAS PALMAS. Orzola</name><desc>Orientación: _NE&#10;Nº vuelos en XContest: 815&#10;Windy:&#10;https://www.windy.com/29.2242/-13.4633/wind?29.2242,-13.4633,13&#10;MeteoParapente:&#10;https://meteo-parapente.com/#/29.2242,-13.4633,13</desc></wpt>
<wpt lat="28.095419" lon="-15.662"><name>LAS PALMAS. Pico del Viento</name><desc>Orientación: _NO_O_SO&#10;Nº vuelos en XContest: 68&#10;Windy:&#10;https://www.windy.com/28.095419/-15.662/wind?28.095419,-15.662,13&#10;MeteoParapente:&#10;https://meteo-parapente.com/#/28.095419,-15.662,13</desc></wpt>
<wpt lat="29.1219" lon="-13.4644"><name>LAS PALMAS. Playa Arrieta</name><desc>Orientación: _NE&#10;Nº vuelos en XContest: 11&#10;Windy:&#10;https://www.windy.com/29.1219/-13.4644/wind?29.1219,-13.4644,13&#10;MeteoParapente:&#10;https://meteo-parapente.com/#/29.1219,-13.4644,13</desc></wpt>
<wpt lat="28.9073" lon="-13.7434"><name>LAS PALMAS. Playa Quemada</name><desc>Orientación: _E_SE_S&#10;Nº vuelos en XContest: 519&#10;Windy:&#10;https://www.windy.com/28.9073/-13.7434/wind?28.9073,-13.7434,13&#10;MeteoParapente:&#10;https://meteo-parapente.com/#/28.9073,-13.7434,13</desc></wpt>
<wpt lat="29.0929" lon="-13.634"><name>LAS PALMAS. Soo</name><desc>Orientación: _N&#10;Nº vuelos en XContest: 10&#10;Windy:&#10;https://www.windy.com/29.0929/-13.634/wind?29.0929,-13.634,13&#10;MeteoParapente:&#10;https://meteo-parapente.com/#/29.0929,-13.634,13</desc></wpt>
<wpt lat="29.0628" lon="-13.5778"><name>LAS PALMAS. Teguise</name><desc>Orientación: _N_NO_O&#10;Nº vuelos en XContest: 599&#10;Windy:&#10;https://www.windy.com/29.0628/-13.5778/wind?29.0628,-13.5778,13&#10;MeteoParapente:&#10;https://meteo-parapente.com/#/29.0628,-13.5778,13</desc></wpt>
<wpt lat="29.0808" lon="-13.7159"><name>LAS PALMAS. Tenesar</name><desc>Orientación: _N_NE&#10;Nº vuelos en XContest: 293&#10;Windy:&#10;https://www.windy.com/29.0808/-13.7159/wind?29.0808,-13.7159,13&#10;MeteoParapente:&#10;https://meteo-parapente.com/#/29.0808,-13.7159,13</desc></wpt>
<wpt lat="28.422942" lon="-16.295618"><name>TENERIFE. Añaza</name><desc>Orientación: _SE&#10;Nº vuelos en XContest: 14&#10;Windy:&#10;https://www.windy.com/28.422942/-16.295618/wind?28.422942,-16.295618,13&#10;MeteoParapente:&#10;https://meteo-parapente.com/#/28.422942,-16.295618,13</desc></wpt>
<wpt lat="28.377722" lon="-16.430589"><name>TENERIFE. Arafo</name><desc>Orientación: _E_SE&#10;Nº vuelos en XContest: 360&#10;Windy:&#10;https://www.windy.com/28.377722/-16.430589/wind?28.377722,-16.430589,13&#10;MeteoParapente:&#10;https://meteo-parapente.com/#/28.377722,-16.430589,13</desc></wpt>
<wpt lat="28.560989" lon="-16.332267"><name>TENERIFE. Arenal</name><desc>Orientación: _O_SO&#10;Nº vuelos en XContest: 2&#10;Windy:&#10;https://www.windy.com/28.560989/-16.332267/wind?28.560989,-16.332267,13&#10;MeteoParapente:&#10;https://meteo-parapente.com/#/28.560989,-16.332267,13</desc></wpt>
<wpt lat="28.159492" lon="-16.492366"><name>TENERIFE. Arico</name><desc>Orientación: _E_SE&#10;Nº vuelos en XContest: 18&#10;Windy:&#10;https://www.windy.com/28.159492/-16.492366/wind?28.159492,-16.492366,13&#10;MeteoParapente:&#10;https://meteo-parapente.com/#/28.159492,-16.492366,13</desc></wpt>
<wpt lat="28.556" lon="-16.341503"><name>TENERIFE. Bajamar</name><desc>Orientación: _NO_N&#10;Nº vuelos en XContest: 4&#10;Windy:&#10;https://www.windy.com/28.556/-16.341503/wind?28.556,-16.341503,13&#10;MeteoParapente:&#10;https://meteo-parapente.com/#/28.556,-16.341503,13</desc></wpt>
<wpt lat="28.398942" lon="-16.368932"><name>TENERIFE. Barranco Hondo</name><desc>Orientación: _E_S&#10;Nº vuelos en XContest: 40&#10;Windy:&#10;https://www.windy.com/28.398942/-16.368932/wind?28.398942,-16.368932,13&#10;MeteoParapente:&#10;https://meteo-parapente.com/#/28.398942,-16.368932,13</desc></wpt>
<wpt lat="28.573336" lon="-16.183188"><name>TENERIFE. Benijo</name><desc>Orientación: _N&#10;Nº vuelos en XContest: 5&#10;Windy:&#10;https://www.windy.com/28.573336/-16.183188/wind?28.573336,-16.183188,13&#10;MeteoParapente:&#10;https://meteo-parapente.com/#/28.573336,-16.183188,13</desc></wpt>
<wpt lat="28.580578" lon="-17.869061"><name>TENERIFE. Campanarios</name><desc>Orientación: _NO_O_SO&#10;Nº vuelos en XContest: 966&#10;Windy:&#10;https://www.windy.com/28.580578/-17.869061/wind?28.580578,-17.869061,13&#10;MeteoParapente:&#10;https://meteo-parapente.com/#/28.580578,-17.869061,13</desc></wpt>
<wpt lat="28.582375" lon="-17.882181"><name>TENERIFE. Campanarios (Jedey)</name><desc>Orientación: _SO_S&#10;Nº vuelos en XContest: 58&#10;Windy:&#10;https://www.windy.com/28.582375/-17.882181/wind?28.582375,-17.882181,13&#10;MeteoParapente:&#10;https://meteo-parapente.com/#/28.582375,-17.882181,13</desc></wpt>
<wpt lat="28.350467" lon="-16.369628"><name>TENERIFE. Candelaria</name><desc>Orientación: _E&#10;Nº vuelos en XContest: 1&#10;Windy:&#10;https://www.windy.com/28.350467/-16.369628/wind?28.350467,-16.369628,13&#10;MeteoParapente:&#10;https://meteo-parapente.com/#/28.350467,-16.369628,13</desc></wpt>
<wpt lat="28.75135" lon="-17.83405"><name>TENERIFE. Cumbre San Andrés</name><desc>Orientación: _N_NE_E&#10;Nº vuelos en XContest: 0&#10;Windy:&#10;https://www.windy.com/28.75135/-17.83405/wind?28.75135,-17.83405,13&#10;MeteoParapente:&#10;https://meteo-parapente.com/#/28.75135,-17.83405,13</desc></wpt>
<wpt lat="27.7331" lon="-18.0069"><name>TENERIFE. Dos Hermanas (El Hierro)</name><desc>Orientación: _NO&#10;Nº vuelos en XContest: 287&#10;Windy:&#10;https://www.windy.com/27.7331/-18.0069/wind?27.7331,-18.0069,13&#10;MeteoParapente:&#10;https://meteo-parapente.com/#/27.7331,-18.0069,13</desc></wpt>
<wpt lat="28.616674" lon="-17.849216"><name>TENERIFE. El Gallo</name><desc>Orientación: _NO_O_SO&#10;Nº vuelos en XContest: 35&#10;Windy:&#10;https://www.windy.com/28.616674/-17.849216/wind?28.616674,-17.849216,13&#10;MeteoParapente:&#10;https://meteo-parapente.com/#/28.616674,-17.849216,13</desc></wpt>
<wpt lat="27.731472" lon="-18.015642"><name>TENERIFE. El Hierro (El Golfo)</name><desc>Orientación: _N_NO_NE&#10;Nº vuelos en XContest: 285&#10;Windy:&#10;https://www.windy.com/27.731472/-18.015642/wind?27.731472,-18.015642,13&#10;MeteoParapente:&#10;https://meteo-parapente.com/#/27.731472,-18.015642,13</desc></wpt>
<wpt lat="28.359819" lon="-16.78577"><name>TENERIFE. El Tanque</name><desc>Orientación: _N_NE&#10;Nº vuelos en XContest: 997&#10;Windy:&#10;https://www.windy.com/28.359819/-16.78577/wind?28.359819,-16.78577,13&#10;MeteoParapente:&#10;https://meteo-parapente.com/#/28.359819,-16.78577,13</desc></wpt>
<wpt lat="28.229094" lon="-16.432639"><name>TENERIFE. Fasnia</name><desc>Orientación: _E_SO&#10;Nº vuelos en XContest: 347&#10;Windy:&#10;https://www.windy.com/28.229094/-16.432639/wind?28.229094,-16.432639,13&#10;MeteoParapente:&#10;https://meteo-parapente.com/#/28.229094,-16.432639,13</desc></wpt>
<wpt lat="28.291382" lon="-16.418209"><name>TENERIFE. Güimar</name><desc>Orientación: _N_E&#10;Nº vuelos en XContest: 774&#10;Windy:&#10;https://www.windy.com/28.291382/-16.418209/wind?28.291382,-16.418209,13&#10;MeteoParapente:&#10;https://meteo-parapente.com/#/28.291382,-16.418209,13</desc></wpt>
<wpt lat="28.355604" lon="-16.722564"><name>TENERIFE. Icod de los Vinos</name><desc>Orientación: _N_E&#10;Nº vuelos en XContest: 6&#10;Windy:&#10;https://www.windy.com/28.355604/-16.722564/wind?28.355604,-16.722564,13&#10;MeteoParapente:&#10;https://meteo-parapente.com/#/28.355604,-16.722564,13</desc></wpt>
<wpt lat="28.15617" lon="-16.692205"><name>TENERIFE. Ifonche</name><desc>Orientación: _S_O&#10;Nº vuelos en XContest: 0&#10;Windy:&#10;https://www.windy.com/28.15617/-16.692205/wind?28.15617,-16.692205,13&#10;MeteoParapente:&#10;https://meteo-parapente.com/#/28.15617,-16.692205,13</desc></wpt>
<wpt lat="28.122268" lon="-16.690098"><name>TENERIFE. Infonche</name><desc>Orientación: _SO_S&#10;Nº vuelos en XContest: 3199&#10;Windy:&#10;https://www.windy.com/28.122268/-16.690098/wind?28.122268,-16.690098,13&#10;MeteoParapente:&#10;https://meteo-parapente.com/#/28.122268,-16.690098,13</desc></wpt>
<wpt lat="28.328853" lon="-16.491378"><name>TENERIFE. Izaña</name><desc>Orientación: _N_NO_E_SE&#10;Nº vuelos en XContest: 1506&#10;Windy:&#10;https://www.windy.com/28.328853/-16.491378/wind?28.328853,-16.491378,13&#10;MeteoParapente:&#10;https://meteo-parapente.com/#/28.328853,-16.491378,13</desc></wpt>
<wpt lat="28.115644" lon="-16.657367"><name>TENERIFE. Jama</name><desc>Orientación: _SE_SO&#10;Nº vuelos en XContest: 634&#10;Windy:&#10;https://www.windy.com/28.115644/-16.657367/wind?28.115644,-16.657367,13&#10;MeteoParapente:&#10;https://meteo-parapente.com/#/28.115644,-16.657367,13</desc></wpt>
<wpt lat="28.378506" lon="-16.600583"><name>TENERIFE. La Corona</name><desc>Orientación: _N_NE&#10;Nº vuelos en XContest: 515&#10;Windy:&#10;https://www.windy.com/28.378506/-16.600583/wind?28.378506,-16.600583,13&#10;MeteoParapente:&#10;https://meteo-parapente.com/#/28.378506,-16.600583,13</desc></wpt>
<wpt lat="28.414585" lon="-16.359547"><name>TENERIFE. La Esperanza</name><desc>Orientación: _E_S&#10;Nº vuelos en XContest: 2&#10;Windy:&#10;https://www.windy.com/28.414585/-16.359547/wind?28.414585,-16.359547,13&#10;MeteoParapente:&#10;https://meteo-parapente.com/#/28.414585,-16.359547,13</desc></wpt>
<wpt lat="28.104389" lon="-17.338142"><name>TENERIFE. La Mérica</name><desc>Orientación: _SE_S_SO&#10;Nº vuelos en XContest: 4&#10;Windy:&#10;https://www.windy.com/28.104389/-17.338142/wind?28.104389,-17.338142,13&#10;MeteoParapente:&#10;https://meteo-parapente.com/#/28.104389,-17.338142,13</desc></wpt>
<wpt lat="28.571606" lon="-16.316747"><name>TENERIFE. La Punta del Hidalgo</name><desc>Orientación: _NO_N&#10;Nº vuelos en XContest: 9&#10;Windy:&#10;https://www.windy.com/28.571606/-16.316747/wind?28.571606,-16.316747,13&#10;MeteoParapente:&#10;https://meteo-parapente.com/#/28.571606,-16.316747,13</desc></wpt>
<wpt lat="28.0395" lon="-16.7073"><name>TENERIFE. Ladera de los Cristianos</name><desc>Orientación: _O_NO&#10;Nº vuelos en XContest: 20&#10;Windy:&#10;https://www.windy.com/28.0395/-16.7073/wind?28.0395,-16.7073,13&#10;MeteoParapente:&#10;https://meteo-parapente.com/#/28.0395,-16.7073,13</desc></wpt>
<wpt lat="27.7411" lon="-17.965"><name>TENERIFE. Las Playas</name><desc>Orientación: _S&#10;Nº vuelos en XContest: 10&#10;Windy:&#10;https://www.windy.com/27.7411/-17.965/wind?27.7411,-17.965,13&#10;MeteoParapente:&#10;https://meteo-parapente.com/#/27.7411,-17.965,13</desc></wpt>
<wpt lat="28.510683" lon="-16.187756"><name>TENERIFE. Las Teresitas</name><desc>Orientación: _E_S&#10;Nº vuelos en XContest: 178&#10;Windy:&#10;https://www.windy.com/28.510683/-16.187756/wind?28.510683,-16.187756,13&#10;MeteoParapente:&#10;https://meteo-parapente.com/#/28.510683,-16.187756,13</desc></wpt>
<wpt lat="28.249" lon="-16.8179"><name>TENERIFE. Los Gigantes</name><desc>Orientación: _O_SO&#10;Nº vuelos en XContest: 279&#10;Windy:&#10;https://www.windy.com/28.249/-16.8179/wind?28.249,-16.8179,13&#10;MeteoParapente:&#10;https://meteo-parapente.com/#/28.249,-16.8179,13</desc></wpt>
<wpt lat="28.422228" lon="-16.501708"><name>TENERIFE. Los Patos</name><desc>Orientación: _NO&#10;Nº vuelos en XContest: 5&#10;Windy:&#10;https://www.windy.com/28.422228/-16.501708/wind?28.422228,-16.501708,13&#10;MeteoParapente:&#10;https://meteo-parapente.com/#/28.422228,-16.501708,13</desc></wpt>
<wpt lat="28.468969" lon="-16.433105"><name>TENERIFE. Mesa del Mar</name><desc>Orientación: _O&#10;Nº vuelos en XContest: 47&#10;Windy:&#10;https://www.windy.com/28.468969/-16.433105/wind?28.468969,-16.433105,13&#10;MeteoParapente:&#10;https://meteo-parapente.com/#/28.468969,-16.433105,13</desc></wpt>
<wpt lat="28.669047" lon="-17.940933"><name>TENERIFE. Mirador del Time</name><desc>Orientación: _O_NO&#10;Nº vuelos en XContest: 10&#10;Windy:&#10;https://www.windy.com/28.669047/-17.940933/wind?28.669047,-17.940933,13&#10;MeteoParapente:&#10;https://meteo-parapente.com/#/28.669047,-17.940933,13</desc></wpt>
<wpt lat="28.106868" lon="-16.760537"><name>TENERIFE. Playa Diego Hernández</name><desc>Orientación: _O_NO&#10;Nº vuelos en XContest: 9&#10;Windy:&#10;https://www.windy.com/28.106868/-16.760537/wind?28.106868,-16.760537,13&#10;MeteoParapente:&#10;https://meteo-parapente.com/#/28.106868,-16.760537,13</desc></wpt>
<wpt lat="28.416275" lon="-16.531631"><name>TENERIFE. Puerto de la Cruz</name><desc>Orientación: _NE&#10;Nº vuelos en XContest: 91&#10;Windy:&#10;https://www.windy.com/28.416275/-16.531631/wind?28.416275,-16.531631,13&#10;MeteoParapente:&#10;https://meteo-parapente.com/#/28.416275,-16.531631,13</desc></wpt>
<wpt lat="28.586711" lon="-17.902192"><name>TENERIFE. Puerto de Naos</name><desc>Orientación: _O_SO_S&#10;Nº vuelos en XContest: 621&#10;Windy:&#10;https://www.windy.com/28.586711/-17.902192/wind?28.586711,-17.902192,13&#10;MeteoParapente:&#10;https://meteo-parapente.com/#/28.586711,-17.902192,13</desc></wpt>
<wpt lat="28.7523" lon="-17.933302"><name>TENERIFE. Punta Gorda</name><desc>Orientación: _NO&#10;Nº vuelos en XContest: 2&#10;Windy:&#10;https://www.windy.com/28.7523/-17.933302/wind?28.7523,-17.933302,13&#10;MeteoParapente:&#10;https://meteo-parapente.com/#/28.7523,-17.933302,13</desc></wpt>
<wpt lat="28.745969" lon="-17.743819"><name>TENERIFE. Puntallana</name><desc>Orientación: _N_NE&#10;Nº vuelos en XContest: 6&#10;Windy:&#10;https://www.windy.com/28.745969/-17.743819/wind?28.745969,-17.743819,13&#10;MeteoParapente:&#10;https://meteo-parapente.com/#/28.745969,-17.743819,13</desc></wpt>
<wpt lat="28.7438" lon="-17.9085"><name>TENERIFE. Roque de los Muchachos</name><desc>Orientación: _NO_O&#10;Nº vuelos en XContest: 3&#10;Windy:&#10;https://www.windy.com/28.7438/-17.9085/wind?28.7438,-17.9085,13&#10;MeteoParapente:&#10;https://meteo-parapente.com/#/28.7438,-17.9085,13</desc></wpt>
<wpt lat="27.7487" lon="-18.1"><name>TENERIFE. Sabinosa (El Hierro)</name><desc>Orientación: _N_NO_NE&#10;Nº vuelos en XContest: 565&#10;Windy:&#10;https://www.windy.com/27.7487/-18.1/wind?27.7487,-18.1,13&#10;MeteoParapente:&#10;https://meteo-parapente.com/#/27.7487,-18.1,13</desc></wpt>
<wpt lat="28.557864" lon="-16.227308"><name>TENERIFE. Taganana</name><desc>Orientación: _NO_NE&#10;Nº vuelos en XContest: 176&#10;Windy:&#10;https://www.windy.com/28.557864/-16.227308/wind?28.557864,-16.227308,13&#10;MeteoParapente:&#10;https://meteo-parapente.com/#/28.557864,-16.227308,13</desc></wpt>
<wpt lat="28.144808" lon="-16.735989"><name>TENERIFE. Taucho</name><desc>Orientación: _O_SO&#10;Nº vuelos en XContest: 14219&#10;Windy:&#10;https://www.windy.com/28.144808/-16.735989/wind?28.144808,-16.735989,13&#10;MeteoParapente:&#10;https://meteo-parapente.com/#/28.144808,-16.735989,13</desc></wpt>
<wpt lat="28.19143" lon="-16.75389"><name>TENERIFE. Tejina</name><desc>Orientación: _O_SO&#10;Nº vuelos en XContest: 25&#10;Windy:&#10;https://www.windy.com/28.19143/-16.75389/wind?28.19143,-16.75389,13&#10;MeteoParapente:&#10;https://meteo-parapente.com/#/28.19143,-16.75389,13</desc></wpt>